dateAdded,dateUpdated,address,city,country,latitude,longitude,postalCode,province,rName
2016-03-29T05:06:36Z,2018-06-26T02:59:52Z,206 Wears Valley Rd,Pigeon Forge,US,35.803788,-83.580553,37863,TN,Taco Bell
2015-10-23T23:59:49Z,2018-06-26T02:59:43Z,9768 Grand River Ave,Detroit,US,42.368823,-83.138251,48204,MI,Wendys
2015-09-21T07:47:08Z,2018-06-26T02:59:43Z,13600 W McNichols Rd,Detroit,US,42.416819,-83.180444,48235,MI,Burger King
2017-06-30T23:04:32Z,2018-06-25T09:29:45Z,1224 State St,Schenectady,US,42.79792,-73.924364,12304,NY,McDonalds
2017-06-29T02:03:33Z,2018-06-25T09:29:45Z,1232 Ulster Ave,Kingston,US,41.967079,-73.988583,12401,NY,McDonalds
2017-06-19T14:50:03Z,2018-06-25T09:29:44Z,1188 Avenue of The Americas,New York,US,40.757558,-73.981671,10036,NY,McDonalds
2017-06-19T14:53:25Z,2018-06-25T09:29:43Z,114 Delancey St,New York,US,40.718943,-73.988306,10002,NY,McDonalds
2017-06-19T14:52:24Z,2018-06-25T09:29:41Z,1050 Front St,Uniondale,US,40.709646,-73.591453,11553,NY,McDonalds
2016-03-21T01:37:59Z,2018-06-25T09:29:41Z,105 Jericho Tpke,Jericho,US,40.780233,-73.55934,11753,NY,McDonalds
2017-06-19T15:24:34Z,2018-06-25T09:29:41Z,106 Wolf Rd,Albany,US,42.716812,-73.809319,12205,NY,McDonalds
2014-02-03T04:12:36Z,2018-06-25T09:29:40Z,101 E 170th St,Bronx,US,40.839569,-73.915927,10452,NY,McDonalds
2016-05-05T12:44:43Z,2018-06-25T09:29:40Z,103 Brookview Dr,Schenectady,US,42.741061,-73.913673,12303,NY,McDonalds
2017-06-19T15:29:59Z,2018-06-25T09:29:40Z,1028 Mckinley Pkwy,Buffalo,US,42.857899,-78.825089,14220,NY,McDonalds
2016-03-31T02:46:48Z,2018-06-25T09:29:39Z,10 Main St,Tonawanda,US,43.021019,-78.878167,14150,NY,McDonalds
2015-11-06T10:16:28Z,2018-06-25T09:29:38Z,300 Mishawum Rd,Woburn,US,42.503903,-71.132748,1801,MA,McDonalds
2016-03-29T04:48:40Z,2018-06-25T09:29:37Z,1190 Providence Rd,Whitinsville,US,42.125526,-71.645913,1588,MA,McDonalds
2016-03-29T04:41:38Z,2018-06-25T09:29:37Z,212 Main St,Wilmington,US,42.557448,-71.181499,1887,MA,McDonalds
2015-07-19T21:00:43Z,2018-06-25T09:29:36Z,44 E Main St,Webster,US,42.055826,-71.873999,1570,MA,McDonalds
2016-06-08T16:14:30Z,2018-06-25T09:29:36Z,789 Main St,Waltham,US,42.376247,-71.241667,2451,MA,McDonalds
2015-10-26T23:05:16Z,2018-06-25T09:29:35Z,20 Main St,Townsend,US,42.650503,-71.662674,1469,MA,McDonalds
2015-11-30T18:17:51Z,2018-06-25T09:29:35Z,595 Main St,Walpole,US,42.157222,-71.243549,2081,MA,McDonalds
2016-03-28T05:34:12Z,2018-06-25T09:29:34Z,282 Winthrop St,Taunton,US,41.88896,-71.120789,2780,MA,McDonalds
2015-11-05T18:48:11Z,2018-06-25T09:29:33Z,660 Liberty St,Springfield,US,42.12193,-72.584242,1104,MA,McDonalds
2015-11-05T18:38:03Z,2018-06-25T09:29:33Z,360 Main St,Springfield,US,42.091561,-72.579647,1105,MA,McDonalds
2017-07-19T22:32:22Z,2018-06-25T09:29:33Z,2392 Main St,Springfield,US,42.111552,-72.603359,1107,MA,McDonalds
2015-11-30T18:25:40Z,2018-06-25T09:29:33Z,1402 Allen St,Springfield,US,42.095053,-72.512539,1118,MA,McDonalds
2016-03-30T04:26:33Z,2018-06-25T09:29:33Z,1610 Boston Rd,Springfield,US,42.142989,-72.48923,1129,MA,McDonalds
2015-12-02T19:41:17Z,2018-06-25T09:29:33Z,59 W Main St,Spencer,US,42.23341,-72.012516,1562,MA,McDonalds
2016-03-24T10:25:24Z,2018-06-25T09:28:10Z,1601 W Kirby St,Wylie,US,33.007329,-96.554127,75098,TX,Taco Bell
2016-06-20T17:25:26Z,2018-06-25T09:28:08Z,7425 S Broadway Ave,Tyler,US,32.274786,-95.306757,75703,TX,Taco Bell
2017-07-06T23:06:49Z,2018-06-25T09:27:52Z,100 Business Loop 70 E,Columbia,US,38.964944,-92.336364,65203,MO,Burger King
2015-11-30T18:50:23Z,2018-06-25T09:26:55Z,615 Martin Luther King Jr Blvd,Savannah,US,32.070343,-81.101032,31401,GA,Wendys
2016-05-15T21:09:26Z,2018-06-25T09:26:53Z,1123 Roswell Rd,Marietta,US,33.95111,-84.518962,30062,GA,Wendys
2016-04-30T08:27:34Z,2018-06-25T09:26:53Z,273 Keys Ferry St,McDonough,US,33.446887,-84.138326,30253,GA,Wendys
2015-10-20T00:52:56Z,2018-06-25T09:26:53Z,1117 W Spring St,Monroe,US,33.792748,-83.731443,30655,GA,Wendys
2015-10-23T01:54:00Z,2018-06-25T09:26:53Z,430 S Belair Rd,Augusta,US,33.486344,-82.13351,30907,GA,Wendys
2016-04-05T03:02:37Z,2018-06-25T09:26:53Z,2341 N Columbia St,Milledgeville,US,33.108582,-83.254192,31061,GA,Wendys
2015-11-28T18:16:09Z,2018-06-25T09:26:52Z,260 Cooper Rd,Loganville,US,33.880381,-83.939657,30052,GA,Wendys
2016-03-21T01:38:20Z,2018-06-25T09:26:52Z,4331 Atlanta Hwy,Loganville,US,33.839726,-83.905798,30052,GA,Wendys
2015-11-02T15:44:53Z,2018-06-25T09:26:51Z,3015 Panola Rd,Lithonia,US,33.699522,-84.17274,30038,GA,Wendys
2016-03-28T05:51:17Z,2018-06-25T09:01:05Z,184 Endicott St,Danvers,US,42.547923,-70.942014,1923,MA,Burger King
2017-06-27T05:04:00Z,2018-06-25T09:01:01Z,6134 State Route 14,Ravenna,US,41.157059,-81.219054,44266,OH,McDonalds
2016-03-26T04:52:32Z,2018-06-25T09:00:55Z,2992 Jamacha Rd,El Cajon,US,32.739923,-116.942156,92019,CA,Burger King
2014-10-26T13:04:15Z,2018-06-25T09:00:55Z,822 N Johnson Ave,El Cajon,US,32.805945,-116.971542,92020,CA,Burger King
2017-07-18T03:04:11Z,2018-06-25T09:00:41Z,242 N El Camino Real,Encinitas,US,33.051949,-117.260994,92024,CA,Burger King
2016-06-05T20:57:34Z,2018-06-25T09:00:32Z,7011 Barker Cypress Rd,Cypress,US,29.88081,-95.683922,77433,TX,Burger King
2016-04-03T02:39:39Z,2018-06-25T09:00:18Z,962 East Ave,Chico,US,39.76117,-121.842187,95926,CA,Burger King
2016-04-02T05:21:43Z,2018-06-25T09:00:10Z,1760 41st Ave,Capitola,US,36.975287,-121.963929,95010,CA,McDonalds
2017-07-21T15:49:05Z,2018-06-25T09:00:02Z,562 N Main St,Bishop,US,37.365314,-118.39508,93514,CA,McDonalds
2016-04-04T03:33:16Z,2018-06-25T09:00:00Z,1310 E Lamar St,Americus,US,32.07128,-84.216974,31709,GA,McDonalds
2015-11-04T18:22:05Z,2018-06-25T08:59:54Z,2009 E Greenville St,Anderson,US,34.54701,-82.6319,29621,SC,Burger King
2016-04-01T06:35:19Z,2018-06-25T08:59:41Z,328 N Main St,Cedartown,US,34.017911,-85.253614,30125,GA,McDonalds
2015-12-13T19:54:24Z,2018-06-25T08:59:38Z,3025 Main St,Glastonbury,US,41.726353,-72.617608,6033,CT,Burger King
2016-11-02T17:17:26Z,2018-06-25T08:59:35Z,605 E Broadway St,Campbellsville,US,37.346447,-85.337368,42718,KY,McDonalds
2016-04-05T02:42:52Z,2018-06-25T08:59:35Z,1602 E Broadway St,Campbellsville,US,37.357213,-85.323654,42718,KY,Subway
2015-10-23T03:00:17Z,2018-06-25T08:59:26Z,1475 Holiday Ln,Fairfield,US,38.259527,-122.062146,94534,CA,Burger King
2015-10-20T00:11:35Z,2018-06-25T08:59:06Z,11671 Se Federal Hwy,Hobe Sound,US,27.06168,-80.13746,33455,FL,McDonalds
2017-06-23T05:21:12Z,2018-06-25T08:59:04Z,825 E 49th St,Hialeah,US,25.867613,-80.266376,33013,FL,Burger King
2016-11-06T04:38:54Z,2018-06-25T08:58:51Z,2370 US Highway 331 S,DeFuniak Springs,US,30.68782,-86.12318,32435,FL,McDonalds
2015-10-19T07:55:55Z,2018-06-25T08:58:44Z,865 S Main St,Belle Glade,US,26.67511,-80.67,33430,FL,Taco Bell
2016-11-02T17:16:40Z,2018-06-25T08:58:40Z,339 US Highway 27 S,Avon Park,US,27.596742,-81.494029,33825,FL,McDonalds
2015-10-23T02:26:36Z,2018-06-25T08:58:36Z,460 Airways Ave,Savannah,US,32.135603,-81.208243,31408,GA,Burger King
2017-07-24T20:51:53Z,2018-06-25T08:58:30Z,2613 Central Ave,Dodge City,US,37.77885,-100.01663,67801,KS,McDonalds
2015-07-18T18:06:50Z,2018-06-25T08:58:28Z,2501 Se Delaware Ave,Ankeny,US,41.704627,-93.580975,50021,IA,Burger King
2016-04-04T05:19:32Z,2018-06-25T08:58:27Z,2817 E 13th St,Ames,US,42.03511,-93.57344,50010,IA,Burger King
2016-04-02T05:23:13Z,2018-06-25T08:58:27Z,1020 E 1st St,Ankeny,US,41.732374,-93.582329,50021,IA,Burger King
2015-10-20T00:36:53Z,2018-06-25T08:58:25Z,1807 N Church St,Burlington,US,36.09503,-79.408,27217,NC,Burger King
2016-03-28T05:43:23Z,2018-06-25T08:58:21Z,9320 Steele Creek Rd,Charlotte,US,35.16361,-80.96889,28273,NC,McDonalds
2016-03-29T05:14:26Z,2018-06-25T08:58:19Z,9640 Mariposa Rd,Hesperia,US,34.425812,-117.378018,92344,CA,Burger King
2016-03-29T05:14:27Z,2018-06-25T08:58:19Z,17021 Main St,Hesperia,US,34.419638,-117.291579,92345,CA,Burger King
2017-11-21T07:32:53Z,2018-06-25T08:58:08Z,300 Mccarter Rd,Fountain Inn,US,34.68534,-82.19727,29644,SC,McDonalds
2017-06-27T05:54:03Z,2018-06-25T08:58:07Z,2040 Cumberland St,Lebanon,US,40.33873,-76.447826,17042,PA,Burger King
2016-11-14T02:12:19Z,2018-06-25T08:58:06Z,609 Naamans Rd,Claymont,US,39.81718,-75.45715,19703,DE,Taco Bell
2017-07-20T08:59:43Z,2018-06-25T08:57:57Z,1205 Commons Cir,Plover,US,44.49541,-89.51668,54467,WI,McDonalds
2017-06-30T05:05:48Z,2018-06-25T08:57:39Z,3001 N Reynolds Rd,Bryant,US,34.623419,-92.499052,72022,AR,Burger King
2015-10-23T03:28:22Z,2018-06-25T08:57:37Z,2275 E Butler Ave,Flagstaff,US,35.192109,-111.624197,86004,AZ,Burger King
2017-09-05T23:05:09Z,2018-06-25T08:57:23Z,Route 52 Airport Square,Bluefield,US,37.28415,-81.25128,24701,WV,Burger King
2017-07-24T21:35:25Z,2018-06-25T08:57:12Z,3 Clarksburg Rd,Buckhannon,US,38.997749,-80.233242,26201,WV,Burger King
2015-10-24T00:02:19Z,2018-06-25T08:57:09Z,1902 Mountain View Dr,Cody,US,44.51459,-109.05084,82414,WY,Burger King
2017-07-19T17:41:14Z,2018-06-25T08:56:57Z,310 W Grand Xing,Mobridge,US,45.53751,-100.43688,57601,SD,Subway
2015-11-06T09:51:18Z,2018-06-25T08:56:53Z,2260 Highway 394,Blountville,US,36.524041,-82.312707,37617,TN,McDonalds
2016-12-13T03:41:23Z,2018-06-25T08:56:53Z,214 Carolina Pottery Dr,Blountville,US,36.534114,-82.390053,37617,TN,McDonalds
2016-03-23T04:15:54Z,2018-06-25T08:56:52Z,100 Prince Royal Dr,Berea,US,37.568606,-84.311046,40403,KY,Burger King
2015-10-23T22:47:59Z,2018-06-25T08:56:46Z,23777 Us Route 23,Circleville,US,39.58426871,-82.95390414,43113,OH,Burger King
2017-07-19T21:50:35Z,2018-06-25T08:56:44Z,414 Water St,Chardon,US,41.580901,-81.210168,44024,OH,Burger King
2017-07-23T03:30:11Z,2018-06-25T08:56:43Z,2005 S Main St,Bellefontaine,US,40.331939,-83.761451,43311,OH,Burger King
2017-07-19T22:07:11Z,2018-06-25T08:56:37Z,2000 E Edgerton Rd,Broadview Heights,US,41.29553,-81.67674,44147,OH,Burger King
2015-10-23T22:50:09Z,2018-06-25T08:56:37Z,10037 Broadview Rd,Broadview Heights,US,41.293022,-81.68467,44147,OH,Burger King
2017-07-03T16:39:48Z,2018-06-25T08:56:27Z,2680 Market St,Christiansburg,US,37.16537,-80.422283,24073,VA,Burger King
2015-10-23T01:53:59Z,2018-06-25T08:56:21Z,1004 S Main St,Farmville,US,37.289041,-78.397491,23901,VA,Burger King
2015-10-28T16:20:09Z,2018-06-25T08:56:02Z,3120 W Fm 120,Denison,US,33.762134,-96.581587,75020,TX,Burger King
2016-02-26T13:03:20Z,2018-06-25T08:56:00Z,1705 Expressway 83,Penitas,US,26.243395,-98.4423,78576,TX,McDonalds
2015-10-28T16:28:13Z,2018-06-25T08:55:59Z,2280 E Garrison St,Eagle Pass,US,28.70574,-100.48395,78852,TX,Burger King
2016-03-28T05:53:16Z,2018-06-25T08:55:54Z,2208 Highway 21 E,Bryan,US,30.69488984,-96.36236943,77803,TX,Burger King
2016-03-26T04:07:53Z,2018-06-25T08:55:46Z,5301 Bellaire Blvd,Bellaire,US,29.70529415,-95.4730184,77401,TX,Burger King
2016-07-18T20:27:57Z,2018-06-25T08:55:35Z,1890 Bethlehem Pike,Flourtown,US,40.111177,-75.214144,19031,PA,McDonalds
2015-10-23T02:35:10Z,2018-06-25T08:55:26Z,6385 Dobbin Rd,Columbia,US,39.196116,-76.82101,21045,MD,McDonalds
2015-11-06T09:52:06Z,2018-06-25T08:55:26Z,6241 Washington Blvd,Elkridge,US,39.208926,-76.724769,21075,MD,Burger King
2015-12-02T19:26:53Z,2018-06-25T08:55:15Z,285 Jamesway Rd,Ebensburg,US,40.47425,-78.74575,15931,PA,Burger King
2017-07-19T22:13:24Z,2018-06-25T08:55:03Z,4868 Houston Rd,Florence,US,39.019712,-84.628729,41042,KY,Burger King
2015-10-20T02:26:27Z,2018-06-25T08:55:01Z,105 S 3rd St,Coopersburg,US,40.509286,-75.385827,18036,PA,Burger King
2017-07-07T13:11:14Z,2018-06-25T08:54:51Z,1208 W Front St,Berwick,US,41.049741,-76.252443,18603,PA,Burger King
2016-04-02T05:20:50Z,2018-06-25T08:54:35Z,9 Hudson Hollow Rd,Frankfort,US,38.178962,-84.894596,40601,KY,Burger King
2017-07-06T01:49:42Z,2018-06-25T08:53:51Z,2460 Mountain City Hwy,Elko,US,40.83757,-115.78954,89801,NV,Burger King
2016-04-04T03:21:35Z,2018-06-25T08:53:49Z,313 Middle Country Rd,Coram,US,40.869655,-72.999817,11727,NY,McDonalds
2018-01-18T18:33:00Z,2018-06-25T08:53:38Z,778 Brookway Blvd,Brookhaven,US,31.579563,-90.459029,39601,MS,Burger King
2017-06-19T14:48:53Z,2018-06-25T08:53:26Z,1104 Sunrise Hwy,Amityville,US,40.689896,-73.408119,11701,NY,Burger King
2015-11-29T18:21:10Z,2018-06-25T07:50:30Z,425 E Main St,Pickens,US,34.884512,-82.70476,29671,SC,McDonalds
2015-10-23T03:00:26Z,2018-06-25T07:50:27Z,106 Garner Rd,Spartanburg,US,34.966901,-81.929552,29303,SC,McDonalds
2016-03-30T04:25:28Z,2018-06-25T07:48:52Z,2619 Brandermill Blvd,Gambrills,US,39.037925,-76.678372,21054,MD,Burger King
2017-07-20T14:40:51Z,2018-06-25T07:45:18Z,613 E 4th Ave,Red Springs,US,34.811406,-79.174756,28377,NC,McDonalds
2015-10-23T02:49:49Z,2018-06-24T02:22:38Z,45201 Schoenherr Rd,Utica,US,42.62877,-82.993912,48315,MI,Taco Bell
2015-10-24T00:16:13Z,2018-06-24T02:22:35Z,3860 S State Rd,Ann Arbor,US,42.230907,-83.739813,48108,MI,Taco Bell
2016-03-30T04:13:18Z,2018-06-24T02:22:22Z,9640 Hageman Rd,Bakersfield,US,35.398432,-119.109364,93312,CA,Taco Bell
2017-07-24T21:31:16Z,2018-06-24T02:22:11Z,32940 Michigan Ave,Wayne,US,42.283657,-83.363898,48184,MI,Taco Bell
2017-07-18T03:04:38Z,2018-06-24T02:21:47Z,35 White St,Cambridge,US,42.389162,-71.11789,2140,MA,McDonalds
2016-03-27T14:49:46Z,2018-06-24T02:21:42Z,340 Longwood Ave,Boston,US,42.338242,-71.106394,2115,MA,McDonalds
2016-04-02T05:38:58Z,2018-06-24T02:21:40Z,2306 Dix Hwy,Lincoln Park,US,42.25059,-83.195322,48146,MI,Taco Bell
2017-07-24T20:57:54Z,2018-06-24T02:21:31Z,1108 Lincoln Way East,Massillon,US,40.80019,-81.511421,44646,OH,Taco Bell
2017-06-30T02:09:38Z,2018-06-24T02:21:24Z,705 York Road,Kings Mountain,US,35.231412,-81.332652,28086,NC,Taco Bell
2016-06-04T19:47:29Z,2018-06-23T09:44:12Z,1737 N University Ave,Lafayette,US,30.252668,-92.037149,70507,LA,McDonalds
2015-10-24T00:13:30Z,2018-06-23T09:44:10Z,249 E State St,Montrose,US,43.176212,-83.887437,48457,MI,McDonalds
2015-10-23T02:51:21Z,2018-06-23T09:43:41Z,8010 Sudley Rd,Manassas,US,38.78166,-77.51244,20109,VA,Wendys
2015-11-07T12:18:17Z,2018-06-22T18:39:30Z,1211 Joe Frank Harris Pkwy SE,Cartersville,US,34.203844,-84.809281,30120,GA,Subway
2016-03-21T01:39:40Z,2018-06-22T18:39:26Z,192 Lovvorn Ave,Bowdon,US,33.538661,-85.251916,30108,GA,Subway
2015-10-19T23:00:39Z,2018-06-22T18:39:20Z,1637 Liberty Expy SE,Albany,US,31.499616,-84.115596,31705,GA,Subway
2016-03-21T01:38:26Z,2018-06-22T18:39:19Z,1103 N Westover Blvd,Albany,US,31.620486,-84.220416,31707,GA,Subway
2017-07-20T21:20:32Z,2018-06-22T18:38:29Z,631 Hogan Rd,Bangor,US,44.83564,-68.742387,4401,ME,Burger King
2016-11-02T14:14:18Z,2018-06-22T18:38:17Z,758 W Dixie Dr,Asheboro,US,35.6876,-79.82614,27205,NC,Burger King
2016-02-26T13:41:13Z,2018-06-22T18:38:11Z,1641 S Jefferson Ave,Saint Louis,US,38.615623,-90.221252,63104,MO,Subway
2015-11-25T18:59:13Z,2018-06-22T18:37:16Z,35 Manchester Rd,Derry,US,42.900371,-71.33503,3038,NH,Burger King
2017-07-19T17:42:27Z,2018-06-22T18:37:09Z,195 Woodstock Ave,Rutland,US,43.618244,-72.957313,5701,VT,McDonalds
2014-02-01T04:48:05Z,2018-06-22T18:37:05Z,1155 N Hill Field Rd,Layton,US,41.077026,-111.973568,84041,UT,McDonalds
2017-07-23T03:24:48Z,2018-06-22T18:37:00Z,41 Jayview Dr,Enosburg Falls,US,44.913112,-72.796661,5450,VT,McDonalds
2017-07-20T14:55:43Z,2018-06-22T18:36:49Z,155 Dorset St,South Burlington,US,44.464893,-73.184211,5403,VT,McDonalds
2017-07-20T14:55:43Z,2018-06-22T18:36:48Z,1125 Shelburne Rd,South Burlington,US,44.437629,-73.210838,5403,VT,McDonalds
2017-07-23T03:25:41Z,2018-06-22T18:36:47Z,71 Upper Main St,Essex Junction,US,44.507366,-73.086501,5452,VT,McDonalds
2017-07-20T09:03:03Z,2018-06-22T18:36:44Z,44 S Park Dr,Colchester,US,44.503345,-73.1809,5446,VT,McDonalds
2015-10-23T23:58:42Z,2018-06-22T18:36:38Z,916 W North Temple,Salt Lake City,US,40.771496,-111.917532,84116,UT,McDonalds
2017-07-03T16:24:22Z,2018-06-22T18:36:34Z,909 W Riverdale Rd,Ogden,US,41.178295,-112.000468,84405,UT,McDonalds
2016-03-31T02:20:34Z,2018-06-22T18:36:33Z,211 W 1230 N,Provo,US,40.250567,-111.662228,84604,UT,McDonalds
2017-06-19T15:57:28Z,2018-06-22T18:36:27Z,819 N Sullivan Rd,Veradale,US,47.664944,-117.197199,99037,WA,McDonalds
2017-07-19T22:13:57Z,2018-06-22T18:36:23Z,902 S Main St,Brigham City,US,41.491076,-112.016097,84302,UT,McDonalds
2015-09-21T08:46:16Z,2018-06-22T18:36:23Z,505 W Yelm Ave,Yelm,US,46.944589,-122.612408,98597,WA,McDonalds
2017-07-06T18:57:14Z,2018-06-22T18:36:21Z,1600 E Chestnut Ave,Yakima,US,46.603108,-120.481796,98901,WA,McDonalds
2015-09-21T09:24:44Z,2018-06-22T18:36:20Z,5910 Summitview Ave,Yakima,US,46.600036,-120.586846,98908,WA,McDonalds
2015-10-23T02:31:09Z,2018-06-22T18:36:20Z,814 S 9th Ave,Walla Walla,US,46.056214,-118.346068,99362,WA,McDonalds
2015-09-21T09:00:11Z,2018-06-22T18:36:18Z,1601 Pacific Ave,Woodland,US,45.910773,-122.746105,98674,WA,McDonalds
2017-07-19T21:54:27Z,2018-06-22T18:35:59Z,1084 S State Rd,Davison,US,43.017622,-83.517572,48423,MI,Burger King
2016-04-01T06:28:42Z,2018-06-22T18:35:34Z,1313 N State St,Belvidere,US,42.269137,-88.853432,61008,IL,McDonalds
2016-04-02T05:32:31Z,2018-06-22T18:35:33Z,681 N 12th St,Breese,US,38.619582,-89.530023,62230,IL,McDonalds
2017-07-23T03:27:52Z,2018-06-22T18:35:26Z,285 N Front St,Braidwood,US,41.265585,-88.208353,60408,IL,McDonalds
2016-03-26T04:54:04Z,2018-06-22T18:35:26Z,100 N Bolingbrook Dr,Bolingbrook,US,41.698519,-88.068207,60440,IL,McDonalds
2016-04-02T05:30:06Z,2018-06-22T18:35:26Z,1180 N Kinzie Ave,Bradley,US,41.160051,-87.851081,60915,IL,McDonalds
2015-10-19T17:01:52Z,2018-06-22T18:35:25Z,575 Main St NW,Bourbonnais,US,41.159303,-87.886347,60914,IL,McDonalds
2016-03-25T03:03:12Z,2018-06-22T18:35:23Z,6401 Cermak Rd,Berwyn,US,41.850214,-87.783733,60402,IL,McDonalds
2016-03-25T03:03:26Z,2018-06-22T18:35:22Z,7181 Cermak Rd,Berwyn,US,41.849966,-87.802979,60402,IL,McDonalds
2016-04-01T06:28:40Z,2018-06-22T18:35:21Z,240 W Chrysler Dr,Belvidere,US,42.240066,-88.841255,61008,IL,McDonalds
2016-04-05T02:37:10Z,2018-06-22T18:35:20Z,7301 Westfield Plaza Dr,Belleville,US,38.545182,-90.052155,62223,IL,McDonalds
2016-03-28T06:02:13Z,2018-06-22T18:35:19Z,1023 N Lake St,Aurora,US,41.778876,-88.315713,60506,IL,McDonalds
2016-03-27T14:39:43Z,2018-06-22T18:35:18Z,188 Fox Valley Ctr,Aurora,US,41.759701,-88.208402,60504,IL,McDonalds
2017-07-06T03:30:35Z,2018-06-22T18:35:15Z,1402 SE 3rd St,Aledo,US,41.199464,-90.733615,61231,IL,McDonalds
2017-07-02T02:56:51Z,2018-06-22T18:35:13Z,500 E Algonquin Rd,Algonquin,US,42.163979,-88.285165,60102,IL,McDonalds
2017-06-29T02:15:14Z,2018-06-22T18:35:12Z,125 S Randall Rd,Algonquin,US,42.173932,-88.335286,60102,IL,McDonalds
2015-10-24T00:12:23Z,2018-06-22T18:35:07Z,148 Caldwell Blvd,Nampa,US,43.587291,-116.575061,83651,ID,McDonalds
2016-04-02T05:14:37Z,2018-06-22T18:35:00Z,178 S Eagle Rd,Eagle,US,43.693428,-116.353552,83616,ID,McDonalds
2016-04-05T02:23:07Z,2018-06-22T18:35:00Z,1335 S Washington Ave,Emmett,US,43.863452,-116.500085,83617,ID,McDonalds
2017-07-20T15:52:49Z,2018-06-22T18:34:57Z,1750 Rostraver Rd,Belle Vernon,US,40.174915,-79.806673,15012,PA,Subway
2017-07-19T15:29:53Z,2018-06-22T18:34:56Z,2693 Brodhead Rd,Aliquippa,US,40.588694,-80.260898,15001,PA,Subway
2015-10-24T00:14:17Z,2018-06-22T18:34:52Z,2900 Wendell Blvd,Wendell,US,35.792697,-78.37903,27591,NC,McDonalds
2016-04-03T02:48:13Z,2018-06-22T18:34:51Z,2900 W 5th St,Lumberton,US,34.62292,-79.047438,28358,NC,McDonalds
2018-01-23T05:45:40Z,2018-06-22T18:34:04Z,595 E Beasley Rd,Jackson,US,32.385437,-90.147307,39206,MS,McDonalds
2018-01-18T06:22:31Z,2018-06-22T18:34:02Z,970 Cedar Lake Rd,Biloxi,US,30.446349,-88.934148,39532,MS,McDonalds
2016-09-08T18:20:14Z,2018-06-22T18:34:01Z,9505 South Blvd,Charlotte,US,35.108263,-80.881511,28273,NC,McDonalds
2018-01-18T06:30:29Z,2018-06-22T18:34:00Z,937 Alabama St,Columbus,US,33.493277,-88.363825,39702,MS,McDonalds
2015-10-24T00:06:49Z,2018-06-22T18:33:59Z,930 Mall Loop Rd,High Point,US,35.989293,-80.002751,27262,NC,McDonalds
2016-04-01T06:27:24Z,2018-06-22T18:33:58Z,8305 Creedmoor Rd,Raleigh,US,35.900308,-78.681365,27613,NC,McDonalds
2016-06-20T20:02:25Z,2018-06-22T18:33:58Z,905 Louisiana Ave,Libby,US,48.387043,-115.552063,59923,MT,McDonalds
2018-01-19T19:44:19Z,2018-06-22T18:33:56Z,6724 Highway 63,Moss Point,US,30.438931,-88.526545,39563,MS,McDonalds
2016-04-01T06:53:24Z,2018-06-22T18:33:52Z,812 Winston Rd,Lexington,US,35.837287,-80.253557,27295,NC,McDonalds
2017-06-19T15:34:16Z,2018-06-22T18:33:51Z,840 S Main St,Kernersville,US,36.110972,-80.089276,27284,NC,McDonalds
2016-04-04T04:06:24Z,2018-06-22T18:33:50Z,822 Wheat Dr,Bozeman,US,45.698929,-111.046744,59715,MT,McDonalds
2016-04-05T03:08:27Z,2018-06-22T18:33:43Z,717 Conover Blvd W,Conover,US,35.695895,-81.232175,28613,NC,McDonalds
2015-10-23T03:38:32Z,2018-06-22T18:33:43Z,720 E Broadway St,Missoula,US,46.869446,-113.985036,59802,MT,McDonalds
2017-07-19T21:56:28Z,2018-06-22T18:33:42Z,710 N Davis Ave,Cleveland,US,33.759524,-90.715742,38732,MS,McDonalds
2018-01-18T06:22:22Z,2018-06-22T18:33:40Z,692 Beach Blvd,Biloxi,US,30.39304,-88.884899,39530,MS,McDonalds
2016-03-29T04:52:01Z,2018-06-22T18:33:39Z,65 Goodman Rd W,Southaven,US,34.962709,-89.990486,38671,MS,McDonalds
2017-06-19T15:58:42Z,2018-06-22T18:33:38Z,706 College Rd,Greensboro,US,36.088625,-79.887872,27410,NC,McDonalds
2016-02-26T13:28:05Z,2018-06-22T18:33:37Z,701 Main St,Scotland Neck,US,36.126193,-77.423143,27874,NC,McDonalds
2016-06-04T20:30:22Z,2018-06-22T18:33:35Z,6779 Raeford Rd,Fayetteville,US,35.03713,-79.006832,28304,NC,McDonalds
2016-06-20T15:40:31Z,2018-06-22T18:33:33Z,6495 Us Highway 93 S,Whitefish,US,48.396123,-114.334756,59937,MT,McDonalds
2016-03-28T15:00:14Z,2018-06-22T18:33:30Z,6225 W Sugar Creek Rd,Charlotte,US,35.333437,-80.798965,28269,NC,McDonalds
2015-10-23T03:09:35Z,2018-06-22T18:33:29Z,6301 Albemarle Rd,Charlotte,US,35.203199,-80.73825,28212,NC,McDonalds
2016-04-05T03:55:57Z,2018-06-22T18:33:28Z,601 Jake Alexander Blvd W,Salisbury,US,35.661995,-80.500358,28147,NC,McDonalds
2017-06-19T15:33:44Z,2018-06-22T18:33:27Z,5701 Inman Rd,Greensboro,US,36.126014,-79.906582,27410,NC,McDonalds
2015-10-19T18:12:02Z,2018-06-22T18:33:26Z,5800 E Wt Harris Blvd,Charlotte,US,35.236497,-80.735822,28215,NC,McDonalds
2017-06-30T02:16:51Z,2018-06-22T18:32:59Z,1432 Cotton Grove Rd,Lexington,US,35.786441,-80.261414,27292,NC,Burger King
2017-07-20T02:13:45Z,2018-06-22T18:32:59Z,401 Lincoln Hwy,Fairview Heights,US,38.592706,-89.97913,62208,IL,Burger King
2016-06-18T20:38:49Z,2018-06-22T18:32:50Z,7197 Charles St,Rockford,US,42.242137,-88.976027,61112,IL,Burger King
2017-07-20T04:28:43Z,2018-06-22T18:32:50Z,100 Thomas Rd,West Monroe,US,32.517245,-92.157261,71291,LA,Burger King
2015-11-19T22:21:34Z,2018-06-22T18:32:49Z,10440 Highland Rd,Hartland,US,42.633792,-83.745291,48353,MI,Taco Bell
2015-10-23T00:56:48Z,2018-06-22T18:32:49Z,1138 E State St,Rockford,US,42.266918,-89.078393,61104,IL,Burger King
2017-07-06T22:59:55Z,2018-06-22T18:32:48Z,421 N 36th St,Quincy,US,39.935583,-91.358298,62301,IL,Burger King
2016-03-29T05:01:45Z,2018-06-22T18:32:47Z,4121 Sauk Trl,Richton Park,US,41.483933,-87.716547,60471,IL,Burger King
2017-07-06T23:40:42Z,2018-06-22T18:32:46Z,600 S Newport Rd,Pontiac,US,40.873382,-88.662007,61764,IL,Burger King
2016-03-31T02:33:54Z,2018-06-22T18:32:43Z,10721 Jefferson Ave,Newport News,US,37.051114,-76.460806,23601,VA,Burger King
2017-07-19T21:53:05Z,2018-06-22T18:32:43Z,2901 Court St,Pekin,US,40.551094,-89.608403,61554,IL,Burger King
2016-04-02T03:49:58Z,2018-06-22T18:32:41Z,2408 Stringtown Rd,Grove City,US,39.881314,-83.067606,43123,OH,Taco Bell
2017-07-23T03:34:45Z,2018-06-22T18:32:39Z,1 Marquette Ave,Oglesby,US,41.293679,-89.071461,61348,IL,Burger King
2017-07-19T22:42:18Z,2018-06-22T18:32:39Z,1717 Grass Valley Hwy,Auburn,US,38.927033,-121.087568,95603,CA,Taco Bell
2017-06-24T04:40:05Z,2018-06-22T18:32:38Z,370 M St,Crescent City,US,41.755062,-124.193834,95531,CA,Taco Bell
2017-07-20T00:34:05Z,2018-06-22T18:32:37Z,2050 W Main St,Turlock,US,37.492303,-120.872609,95380,CA,Taco Bell
2017-07-19T21:56:32Z,2018-06-22T18:32:35Z,2700 Geer Rd,Turlock,US,37.517764,-120.84839,95382,CA,Taco Bell
2016-03-31T02:34:07Z,2018-06-22T18:32:33Z,1680 Hilliard Rome Rd,Hilliard,US,39.985085,-83.150784,43026,OH,Taco Bell
2016-10-18T21:19:10Z,2018-06-22T18:32:32Z,4652 Cemetery Rd,Hilliard,US,40.031912,-83.141324,43026,OH,Taco Bell
2017-07-06T23:45:42Z,2018-06-22T18:32:32Z,4601 Broadway St,Mount Vernon,US,38.313427,-88.945891,62864,IL,Burger King
2017-07-08T06:10:50Z,2018-06-22T18:32:31Z,1410 Main St,Hamilton,US,39.423262,-84.593293,45013,OH,Taco Bell
2017-07-19T21:52:29Z,2018-06-22T18:32:31Z,730 N Walnut St,Mount Carmel,US,38.412503,-87.766489,62863,IL,Burger King
2016-03-31T02:34:39Z,2018-06-22T18:32:30Z,294 S Hamilton Rd,Columbus,US,39.969056,-82.875638,43230,OH,Taco Bell
2016-03-27T05:33:01Z,2018-06-22T18:32:29Z,1385 Douglas Rd,Montgomery,US,41.726724,-88.319467,60538,IL,Burger King
2017-07-19T21:52:28Z,2018-06-22T18:32:29Z,1130 N Main St,Monmouth,US,40.922304,-90.648003,61462,IL,Burger King
2015-10-23T01:07:53Z,2018-06-22T18:32:27Z,449 W Butler Ave,Chalfont,US,40.270347,-75.223726,18914,PA,Subway
2016-06-20T17:18:15Z,2018-06-22T18:32:27Z,4040 38th Ave,Moline,US,41.472174,-90.477646,61265,IL,Burger King
2016-06-11T00:34:07Z,2018-06-22T18:32:26Z,1935 N Mannheim Rd,Melrose Park,US,41.908625,-87.883706,60160,IL,Burger King
2016-04-05T03:38:52Z,2018-06-22T18:32:25Z,3013 Salem Ave,Dayton,US,39.789566,-84.238902,45406,OH,Taco Bell
2015-11-13T18:38:59Z,2018-06-22T18:32:25Z,2509 S Smithville Rd,Dayton,US,39.73069,-84.141681,45420,OH,Taco Bell
2017-06-13T18:21:18Z,2018-06-22T18:32:25Z,47 Woodman Dr,Dayton,US,39.768447,-84.123579,45431,OH,Taco Bell
2016-08-18T18:27:50Z,2018-06-22T18:32:24Z,3060 Kettering Blvd,Dayton,US,39.706096,-84.202668,45439,OH,Taco Bell
2017-06-19T15:26:36Z,2018-06-22T18:32:23Z,1094 N Main St,East Peoria,US,40.67705,-89.56172,61611,IL,Burger King
2016-06-14T02:39:50Z,2018-06-22T18:32:22Z,8440 N High St,Columbus,US,40.135435,-83.016861,43235,OH,Taco Bell
2016-04-02T05:14:27Z,2018-06-22T18:32:21Z,3834 Morse Rd,Columbus,US,40.058393,-82.917559,43219,OH,Taco Bell
2016-06-14T02:45:50Z,2018-06-22T18:32:21Z,4770 Sawmill Rd,Columbus,US,40.066295,-83.092686,43235,OH,Taco Bell
2016-04-01T06:28:52Z,2018-06-22T18:32:21Z,630 Machesney Rd,Machesney Park,US,42.313288,-89.054244,61115,IL,Burger King
2016-04-02T05:24:31Z,2018-06-22T18:32:21Z,1701 E Jackson St,Macomb,US,40.458596,-90.648064,61455,IL,Burger King
2017-06-29T02:12:32Z,2018-06-22T18:32:20Z,500 Terry Rich Blvd,Saint Clair,US,40.727488,-76.190098,17970,PA,Subway
2016-10-13T13:27:11Z,2018-06-22T18:32:20Z,366 Center Ave,Schuylkill Haven,US,40.637935,-76.171635,17972,PA,Subway
2017-07-19T15:29:44Z,2018-06-22T18:32:19Z,6 W Main St,Bloomsburg,US,41.003082,-76.456548,17815,PA,Subway
2017-06-24T06:35:46Z,2018-06-22T18:32:17Z,149 N 3rd St,Columbia,US,40.033798,-76.504435,17512,PA,Subway
2016-05-05T12:42:20Z,2018-06-22T18:32:17Z,2350 N Reading Rd,Denver,US,40.228059,-76.089173,17517,PA,Subway
2016-12-26T18:05:45Z,2018-06-22T18:32:14Z,439 S Schuyler Ave,Kankakee,US,41.115978,-87.864762,60901,IL,Burger King
2017-11-17T14:35:40Z,2018-06-22T18:32:12Z,3130 Plainfield Rd,Joliet,US,41.581105,-88.163626,60435,IL,Burger King
2016-03-18T18:51:56Z,2018-06-22T18:32:09Z,5300 Grand Ave,Gurnee,US,42.377669,-87.934268,60031,IL,Burger King
2016-03-24T16:36:33Z,2018-06-22T18:32:07Z,1834 Waukegan Rd,Glenview,US,42.088318,-87.798584,60025,IL,Burger King
2016-04-04T06:17:06Z,2018-06-22T18:32:07Z,3406 Nameoki Rd,Granite City,US,38.72506,-90.12272,62040,IL,Burger King
2016-03-24T10:19:36Z,2018-06-22T18:32:03Z,5100 W Cermak Rd,Cicero,US,41.851507,-87.751952,60804,IL,Burger King
2015-10-23T02:45:20Z,2018-06-22T18:31:24Z,1281 Hyde Park Ave,Hyde Park,US,42.25521,-71.124229,2136,MA,Subway
2016-03-27T14:39:23Z,2018-06-22T18:31:22Z,1105 Massachusetts Ave,Cambridge,US,42.370628,-71.113627,2138,MA,Subway
2015-10-26T23:04:58Z,2018-06-22T18:31:21Z,107 Main St,Maynard,US,42.431817,-71.455051,1754,MA,Subway
2014-02-02T04:22:55Z,2018-06-22T18:31:16Z,1900 W Slauson Ave,Los Angeles,US,33.989111,-118.31236,90047,CA,McDonalds
2015-10-23T03:31:26Z,2018-06-22T18:31:15Z,18850 Soledad Canyon Rd,Canyon Country,US,34.415365,-118.464489,91351,CA,McDonalds
2015-11-07T12:13:03Z,2018-06-22T18:31:13Z,9550 Main St,Woodstock,US,34.110167,-84.51781,30188,GA,Subway
2016-03-21T00:03:05Z,2018-06-22T18:31:13Z,1142 E Highway 193,Layton,US,41.101724,-111.945057,84040,UT,Subway
2016-03-26T04:18:38Z,2018-06-22T18:31:12Z,1852 Manhattan Beach Blvd,Manhattan Beach,US,33.887088,-118.379032,90266,CA,McDonalds
2016-04-03T01:57:54Z,2018-06-22T18:31:10Z,1821 Motel Dr,Merced,US,37.288978,-120.454784,95341,CA,McDonalds
2015-10-23T03:58:09Z,2018-06-22T18:31:09Z,1800 S Western Ave,Los Angeles,US,34.041633,-118.308538,90006,CA,McDonalds
2016-06-20T17:35:54Z,2018-06-22T18:31:08Z,1800 Prescott Rd,Modesto,US,37.670921,-121.031266,95350,CA,McDonalds
2015-10-23T03:32:11Z,2018-06-22T18:31:05Z,17455 Central Ave,Carson,US,33.872499,-118.249899,90746,CA,McDonalds
2016-04-01T06:36:59Z,2018-06-22T18:31:04Z,1725 E El Monte Way,Dinuba,US,36.545447,-119.376746,93618,CA,McDonalds
2015-05-22T18:04:45Z,2018-06-22T18:31:03Z,1721 E Bayshore Rd,Palo Alto,US,37.460186,-122.137635,94303,CA,McDonalds
2016-03-29T05:13:57Z,2018-06-22T18:31:03Z,1721 Howe Ave,Sacramento,US,38.596735,-121.415696,95825,CA,McDonalds
2015-10-21T17:54:45Z,2018-06-22T18:31:01Z,1700 W Capitol Ave,West Sacramento,US,38.580839,-121.531005,95691,CA,McDonalds
2015-10-19T15:19:24Z,2018-06-22T18:30:59Z,170 Lincoln Rd E,Vallejo,US,38.083895,-122.232565,94591,CA,McDonalds
2016-03-25T03:01:03Z,2018-06-22T18:30:56Z,1634 W Glenoaks Blvd,Glendale,US,34.170497,-118.289434,91201,CA,McDonalds
2016-10-20T05:09:58Z,2018-06-22T18:30:51Z,15950 Los Serranos Country Club Dr,Chino Hills,US,33.964895,-117.697501,91709,CA,McDonalds
2016-03-28T06:02:48Z,2018-06-22T18:30:49Z,1570 Sycamore Ave,Hercules,US,38.00878,-122.271288,94547,CA,McDonalds
2016-03-27T05:39:41Z,2018-06-22T18:30:45Z,1520 W Valley Blvd,Alhambra,US,34.077272,-118.13938,91803,CA,McDonalds
2015-10-23T02:42:44Z,2018-06-22T18:30:45Z,1526 W Edinger Ave,Santa Ana,US,33.726842,-117.889116,92704,CA,McDonalds
2016-04-01T06:55:06Z,2018-06-22T18:30:44Z,1516 Canyon Del Rey Blvd,Seaside,US,36.607914,-121.855982,93955,CA,McDonalds
2015-10-21T17:56:41Z,2018-06-22T18:30:42Z,1500 E Main St,Woodland,US,38.676763,-121.750518,95776,CA,McDonalds
2017-06-22T19:35:59Z,2018-06-22T18:30:38Z,1459 Main St,Watsonville,US,36.916716,-121.775824,95076,CA,McDonalds
2016-04-08T08:37:05Z,2018-06-22T18:29:48Z,35 Erie Rd,Tallmadge,US,41.100839,-81.437661,44278,OH,Subway
2015-10-23T02:41:09Z,2018-06-22T18:29:43Z,3200 Broadway,Grove City,US,39.896677,-83.081176,43123,OH,Subway
2016-06-20T17:19:33Z,2018-06-22T18:29:43Z,3212 Mahoning Ave,Youngstown,US,41.103117,-80.706303,44509,OH,Subway
2015-10-23T02:48:53Z,2018-06-22T18:29:39Z,1221 E 9 Mile Rd,Hazel Park,US,42.461637,-83.092384,48030,MI,Taco Bell
2015-10-23T00:43:04Z,2018-06-22T18:29:39Z,12200 Gratiot Ave,Detroit,US,42.414696,-82.991078,48205,MI,Taco Bell
2016-04-04T06:44:34Z,2018-06-22T18:29:38Z,2924 State Rd,Cuyahoga Falls,US,41.151148,-81.508981,44223,OH,Subway
2017-06-27T05:04:17Z,2018-06-22T18:29:37Z,2838 Whipple Ave NW,Canton,US,40.829692,-81.424453,44708,OH,Subway
2017-06-29T20:04:55Z,2018-06-22T18:29:30Z,8428 Baltimore Ave,College Park,US,38.993906,-76.932576,20740,MD,Taco Bell
2017-07-19T15:29:38Z,2018-06-22T18:29:18Z,109 S Jefferson St,La Grange,US,29.905505,-96.876605,78945,TX,Subway
2017-08-14T19:51:53Z,2018-06-22T18:29:06Z,2132 N Park Rd,Connersville,US,39.65965,-85.12869,47331,IN,Burger King
2015-10-28T16:32:34Z,2018-06-22T18:29:05Z,1018 E Gravis St,San Diego,US,27.761418,-98.22821,78384,TX,Subway
2017-07-18T03:15:49Z,2018-06-22T18:28:49Z,36100 Hwy 27,Haines City,US,28.124645,-81.64031,33844,FL,Burger King
2015-09-21T08:44:50Z,2018-06-22T18:28:34Z,860 S Main St,Belle Glade,US,26.6752,-80.67163,33430,FL,Burger King
2017-04-12T11:10:37Z,2018-06-22T18:28:22Z,1308 N Keller Dr,Effingham,US,39.140033,-88.566849,62401,IL,Burger King
2016-06-20T17:35:27Z,2018-06-22T18:27:46Z,7085 N Marks Ave,Fresno,US,36.838733,-119.847902,93711,CA,Taco Bell
2016-03-27T05:39:32Z,2018-06-22T18:27:31Z,7785 N 1st St,Fresno,US,36.851564,-119.775033,93720,CA,Taco Bell
2016-06-20T15:27:55Z,2018-06-22T18:27:26Z,991 W El Camino Real,Sunnyvale,US,37.372189,-122.047663,94087,CA,Taco Bell
2017-06-22T19:35:57Z,2018-06-22T18:27:21Z,1350 Travis Blvd,Fairfield,US,38.260137,-122.053517,94533,CA,Taco Bell
2016-03-29T05:02:23Z,2018-06-22T18:27:20Z,500 Contra Costa Blvd,Pleasant Hill,US,37.981376,-122.067541,94523,CA,Taco Bell
2016-03-29T05:02:37Z,2018-06-22T18:27:19Z,1700 Contra Costa Blvd,Pleasant Hill,US,37.953026,-122.059777,94523,CA,Taco Bell
2015-11-29T19:32:19Z,2018-06-22T18:27:14Z,3630 Cobb Pkwy Nw,Acworth,US,34.04479,-84.69587,30101,GA,Burger King
2017-02-11T21:32:05Z,2018-06-22T18:27:13Z,3010 Canton Rd,Marietta,US,34.02467,-84.528218,30066,GA,McDonalds
2016-03-28T05:15:04Z,2018-06-22T18:27:08Z,500 Sierra St,Kingsburg,US,36.51788,-119.563527,93631,CA,Taco Bell
2016-04-01T06:51:00Z,2018-06-22T18:27:07Z,867 Oak Park Blvd,Pismo Beach,US,35.134484,-120.605221,93449,CA,Taco Bell
2016-04-01T06:50:55Z,2018-06-22T18:27:05Z,1500 W Grand Ave,Grover Beach,US,35.121085,-120.612819,93433,CA,Taco Bell
2016-04-05T04:00:21Z,2018-06-22T18:27:04Z,535 W Tefft St,Nipomo,US,35.037452,-120.483624,93444,CA,Taco Bell
2016-03-28T05:34:12Z,2018-06-22T18:26:58Z,3315 Union Ave,Bakersfield,US,35.389522,-119.003386,93305,CA,Taco Bell
2016-03-28T05:34:51Z,2018-06-22T18:26:57Z,2300 H St,Bakersfield,US,35.380387,-119.020827,93301,CA,Taco Bell
2016-03-28T05:15:08Z,2018-06-22T18:26:56Z,1520 Hillman St,Tulare,US,36.227047,-119.330843,93274,CA,Taco Bell
2016-03-28T05:15:08Z,2018-06-22T18:26:56Z,510 E Tulare Ave,Tulare,US,36.208664,-119.342028,93274,CA,Taco Bell
2017-06-19T15:36:46Z,2018-06-22T18:26:55Z,826 W University Ave,Gainesville,US,29.652081,-82.333303,32601,FL,Taco Bell
2017-07-07T13:14:53Z,2018-06-22T18:26:36Z,31 W Hanover St,Spring Grove,US,39.882529,-76.864965,17362,PA,Subway
2017-07-02T01:56:07Z,2018-06-22T18:26:35Z,608 E Main St,Waynesboro,US,39.753163,-77.573373,17268,PA,Subway
2016-05-05T12:45:00Z,2018-06-22T18:26:31Z,491 E Sycamore Rd,Snow Shoe,US,41.026843,-77.935809,16874,PA,Subway
2017-07-19T22:26:53Z,2018-06-22T18:26:30Z,1169 S Main St,Mansfield,US,41.799828,-77.076281,16933,PA,Subway
2016-04-02T05:45:09Z,2018-06-22T18:26:30Z,3455 Capital City Mall Dr,Camp Hill,US,40.222472,-76.930148,17011,PA,Subway
2016-04-06T03:46:41Z,2018-06-22T18:26:29Z,322 Spring Plz,Roaring Spring,US,40.331501,-78.386171,16673,PA,Subway
2015-09-21T07:37:52Z,2018-06-22T18:26:27Z,3104 W 26th St,Erie,US,42.086667,-80.142521,16506,PA,Subway
2016-05-04T23:57:56Z,2018-06-22T18:26:27Z,8035 Perry Hwy,Erie,US,42.068814,-80.038942,16509,PA,Subway
2016-03-28T15:02:41Z,2018-06-22T18:26:27Z,1501 E 38th St,Erie,US,42.114222,-80.034149,16510,PA,Subway
2015-10-19T15:05:42Z,2018-06-22T18:26:25Z,116 N Franklin St,Titusville,US,41.627797,-79.673326,16354,PA,Subway
2015-10-23T01:27:08Z,2018-06-22T18:26:24Z,7421 Crater Lake Hwy,White City,US,42.424354,-122.85108,97503,OR,McDonalds
2017-07-20T14:02:28Z,2018-06-22T18:26:23Z,2100 8th Ct,West Linn,US,45.346352,-122.651045,97068,OR,McDonalds
2017-07-20T14:02:28Z,2018-06-22T18:26:23Z,18550 Willamette Dr,West Linn,US,45.391447,-122.646082,97068,OR,McDonalds
2015-11-15T18:25:16Z,2018-06-22T18:26:21Z,1002 NW Frontage Rd,Troutdale,US,45.543827,-122.3976,97060,OR,McDonalds
2016-04-02T05:13:43Z,2018-06-22T18:26:17Z,4301 W Wisconsin Ave,Appleton,US,44.272996,-88.470975,54913,WI,Taco Bell
2016-06-07T22:02:53Z,2018-06-22T18:26:16Z,1170 Pulaski Hwy,Bear,US,39.630185,-75.664759,19701,DE,Burger King
2016-03-30T04:15:51Z,2018-06-22T18:26:16Z,5701 Main St,Springfield,US,44.045685,-122.928465,97478,OR,McDonalds
2015-10-19T17:41:15Z,2018-06-22T18:26:12Z,1598 Hawthorne Ave NE,Salem,US,44.949393,-122.992538,97301,OR,McDonalds
2015-10-20T01:50:32Z,2018-06-22T18:26:12Z,570 Wallace Rd NW,Salem,US,44.947221,-123.049783,97304,OR,McDonalds
2015-10-23T03:16:14Z,2018-06-22T18:26:11Z,5090 Commercial St SE,Salem,US,44.881341,-123.029824,97306,OR,McDonalds
2017-07-24T21:41:10Z,2018-06-22T18:26:10Z,3540 Highway 90,Milton,US,30.592351,-87.174869,32571,FL,McDonalds
2016-04-04T04:13:35Z,2018-06-22T18:26:09Z,203 W Oglethorpe Hwy,Hinesville,US,31.843914,-81.593593,31313,GA,McDonalds
2016-04-04T04:12:41Z,2018-06-22T18:26:09Z,801 Elma G Miles Pkwy,Hinesville,US,31.828902,-81.617553,31313,GA,McDonalds
2016-04-05T02:42:47Z,2018-06-22T18:26:09Z,8590 Navarre Pkwy,Navarre,US,30.401603,-86.866497,32566,FL,Burger King
2016-04-01T06:41:09Z,2018-06-22T18:26:08Z,965 Dawsonville Hwy,Gainesville,US,34.296844,-83.837155,30501,GA,McDonalds
2016-07-06T20:22:12Z,2018-06-22T18:26:08Z,2125 NW Stewart Pkwy,Roseburg,US,43.23357,-123.372345,97470,OR,McDonalds
2017-09-19T09:31:06Z,2018-06-22T18:26:07Z,19 W Franklin Pl,Hartwell,US,34.357912,-82.941308,30643,GA,McDonalds
2017-06-29T02:24:28Z,2018-06-22T18:26:07Z,204 Broad St,Hawkinsville,US,32.282152,-83.465677,31036,GA,McDonalds
2015-11-24T19:48:18Z,2018-06-22T18:26:06Z,895 SW Rimrock Way,Redmond,US,44.267184,-121.194265,97756,OR,McDonalds
2015-10-20T04:56:54Z,2018-06-22T18:26:05Z,9100 SE Powell Blvd,Portland,US,45.496867,-122.570625,97266,OR,McDonalds
2016-03-24T09:46:04Z,2018-06-22T18:26:04Z,1520 NE Grand Ave,Portland,US,45.534074,-122.660326,97232,OR,McDonalds
2015-11-02T17:33:17Z,2018-06-22T18:26:04Z,18320 SE Stark St,Portland,US,45.518568,-122.474804,97233,OR,McDonalds
2016-06-04T21:00:22Z,2018-06-22T18:26:03Z,2501 Thompson Bridge Rd,Gainesville,US,34.33859,-83.847194,30501,GA,McDonalds
2017-06-19T15:32:20Z,2018-06-22T18:26:02Z,3330 NE 82nd Ave,Portland,US,45.547097,-122.578418,97220,OR,McDonalds
2016-03-21T01:38:19Z,2018-06-22T18:26:01Z,7370 Spout Springs Rd,Flowery Branch,US,34.113731,-83.875289,30542,GA,McDonalds
2015-10-23T03:46:18Z,2018-06-22T18:26:00Z,12005 N Center Ave,Portland,US,45.610301,-122.680866,97217,OR,McDonalds
2016-10-26T21:51:32Z,2018-06-22T18:25:59Z,143 Ocilla Hwy,Fitzgerald,US,31.700147,-83.250732,31750,GA,McDonalds
2016-04-05T03:18:49Z,2018-06-22T18:25:58Z,300 Elbert St,Elberton,US,34.109957,-82.864359,30635,GA,McDonalds
2016-03-24T09:55:47Z,2018-06-22T18:25:58Z,8011 NE M L King Blvd,Portland,US,45.581668,-122.661459,97211,OR,McDonalds
2015-10-25T18:05:24Z,2018-06-22T18:25:58Z,10970 SE Oak St,Portland,US,45.443493,-122.628779,97222,OR,McDonalds
2015-11-22T18:54:04Z,2018-06-22T18:25:57Z,1035 SW 6th Ave,Portland,US,45.516651,-122.679915,97204,OR,McDonalds
2015-10-23T03:53:58Z,2018-06-22T18:25:57Z,1831 W Burnside St,Portland,US,45.523,-122.689866,97209,OR,McDonalds
2015-11-30T18:23:52Z,2018-06-22T18:25:56Z,5220 Buford Hwy NE,Atlanta,US,33.895572,-84.283386,30340,GA,McDonalds
2016-03-24T09:47:59Z,2018-06-22T18:25:56Z,7487 N Ida Ave,Portland,US,45.586771,-122.738535,97203,OR,McDonalds
2016-03-24T09:53:57Z,2018-06-22T18:25:55Z,1850 SW 6th Ave,Portland,US,45.511068,-122.682941,97201,OR,McDonalds
2015-10-20T05:10:52Z,2018-06-22T18:25:55Z,2875 SE Powell Blvd,Portland,US,45.497752,-122.635837,97202,OR,McDonalds
2016-06-18T15:39:21Z,2018-06-22T18:25:54Z,9502 Highway 5,Douglasville,US,33.724674,-84.762459,30135,GA,McDonalds
2016-04-01T06:35:20Z,2018-06-22T18:25:54Z,943 Maddox Dr,Ellijay,US,34.677928,-84.47945,30540,GA,McDonalds
2015-11-07T12:12:37Z,2018-06-22T18:25:54Z,2010 Clackamette Dr,Oregon City,US,45.368912,-122.601786,97045,OR,McDonalds
2015-10-23T22:25:41Z,2018-06-22T18:25:54Z,900 Southgate,Pendleton,US,45.656863,-118.810088,97801,OR,McDonalds
2016-03-24T09:47:26Z,2018-06-22T18:25:53Z,830 Commerce Dr,Decatur,US,33.77819,-84.295842,30030,GA,McDonalds
2017-01-04T11:55:51Z,2018-06-22T18:25:53Z,2726 Chapel Hill Rd,Douglasville,US,33.731508,-84.73673,30135,GA,McDonalds
2015-11-05T18:49:42Z,2018-06-22T18:25:53Z,1450 Molalla Ave,Oregon City,US,45.334883,-122.589765,97045,OR,McDonalds
2017-07-20T16:09:02Z,2018-06-22T18:25:53Z,1690 E Idaho Ave,Ontario,US,44.024706,-116.940583,97914,OR,McDonalds
2016-11-18T15:47:26Z,2018-06-22T18:25:52Z,47567 Highway 58,Oakridge,US,43.747162,-122.486358,97463,OR,McDonalds
2016-03-29T05:22:24Z,2018-06-22T18:25:51Z,1300 N Coast Hwy,Newport,US,44.647361,-124.053022,97365,OR,McDonalds
2016-05-28T13:46:42Z,2018-06-22T18:25:50Z,142 Carbondale Rd SW,Dalton,US,34.65458,-84.980898,30721,GA,McDonalds
2015-10-19T17:16:34Z,2018-06-22T18:25:49Z,3036 Villa Rica Hwy,Dallas,US,33.868809,-84.841628,30157,GA,McDonalds
2016-04-01T06:57:15Z,2018-06-22T18:25:48Z,3611 Crater Lake Hwy,Medford,US,42.371763,-122.855932,97504,OR,McDonalds
2016-03-28T05:26:26Z,2018-06-22T18:25:47Z,660 Atlanta Rd,Cumming,US,34.186966,-84.142456,30040,GA,McDonalds
2016-04-02T03:38:48Z,2018-06-22T18:25:47Z,1140 Biddle Rd,Medford,US,42.339557,-122.872146,97504,OR,McDonalds
2015-09-13T06:52:07Z,2018-06-22T18:25:46Z,100 16th St SE,Long Beach,US,46.341977,-124.05442,98631,WA,McDonalds
2015-10-23T03:29:00Z,2018-06-22T18:25:44Z,2080 Crowell Rd N,Covington,US,33.614464,-83.920178,30014,GA,McDonalds
2015-10-23T00:55:14Z,2018-06-22T18:25:43Z,104 W Nashville Dr,Nashville,US,35.9784,-77.974215,27856,NC,Subway
2017-11-17T09:38:56Z,2018-06-22T18:25:43Z,2443 W Nc 10 Hwy,Newton,US,35.646477,-81.26355,28658,NC,Subway
2015-10-20T01:02:27Z,2018-06-22T18:25:43Z,2320 Salem Rd SE,Conyers,US,33.627899,-83.977799,30013,GA,McDonalds
2017-07-20T14:50:04Z,2018-06-22T18:25:42Z,1408 Edgewood Dr,Mount Airy,US,36.473546,-80.611793,27030,NC,Subway
2016-04-02T05:42:59Z,2018-06-22T18:25:41Z,336 Williamson Rd,Mooresville,US,35.582983,-80.874128,28117,NC,Subway
2017-12-11T05:07:10Z,2018-06-22T18:25:41Z,1255 Burkemont Ave,Morganton,US,35.725336,-81.692565,28655,NC,Subway
2017-06-20T15:00:52Z,2018-06-22T18:25:40Z,1619 Bradley Park Dr,Columbus,US,32.5324,-84.967533,31904,GA,McDonalds
2016-04-05T02:58:01Z,2018-06-22T18:25:35Z,4153 W Vernon Ave,Kinston,US,35.262313,-77.644783,28504,NC,Subway
2015-11-09T18:21:07Z,2018-06-22T18:25:35Z,1130 West Ave,Cartersville,US,34.15733,-84.816204,30120,GA,McDonalds
2016-06-20T15:28:35Z,2018-06-22T18:25:34Z,1175 Bankhead Hwy,Carrollton,US,33.596396,-85.036596,30116,GA,McDonalds
2018-01-18T06:30:45Z,2018-06-22T18:25:18Z,1350 E Woodrow Wilson Ave,Jackson,US,32.326801,-90.172307,39216,MS,McDonalds
2016-10-26T21:19:47Z,2018-06-22T18:25:09Z,1033 Kingold Blvd,Snow Hill,US,35.442179,-77.668133,28580,NC,McDonalds
2014-02-03T04:05:16Z,2018-06-22T18:25:08Z,1442 S Bristol St,Santa Ana,US,33.727985,-117.885151,92704,CA,Subway
2017-07-18T03:07:41Z,2018-06-22T18:25:06Z,3827 S Bristol St,Santa Ana,US,33.6964,-117.885408,92704,CA,Subway
2016-03-30T04:24:24Z,2018-06-22T18:25:06Z,2403 N Tustin Ave,Santa Ana,US,33.769219,-117.835744,92705,CA,Subway
2016-10-20T22:32:11Z,2018-06-22T18:25:04Z,10100 Leesville Rd,Raleigh,US,35.90928,-78.727544,27613,NC,McDonalds
2016-10-26T21:21:25Z,2018-06-22T18:25:02Z,103 Centennial Dr,Livingston,US,45.64066,-110.571452,59047,MT,McDonalds
2016-04-02T03:39:32Z,2018-06-22T18:25:02Z,133 N Interchange,Deer Lodge,US,46.411823,-112.724593,59722,MT,McDonalds
2017-07-19T17:54:57Z,2018-06-22T18:25:01Z,1321 N Road St,Elizabeth City,US,36.329474,-76.226337,27909,NC,McDonalds
2016-04-02T05:43:01Z,2018-06-22T18:24:55Z,107 Gateway Blvd,Mooresville,US,35.557833,-80.856348,28117,NC,McDonalds
2016-04-01T06:57:52Z,2018-06-22T18:24:53Z,1209 N Brightleaf Blvd,Smithfield,US,35.519613,-78.314004,27577,NC,McDonalds
2016-04-01T06:26:48Z,2018-06-22T18:24:52Z,1201 W Sugar Creek Rd,Charlotte,US,35.276966,-80.794009,28213,NC,McDonalds
2017-09-04T07:32:44Z,2018-06-22T18:24:51Z,110 Morganton Blvd SW,Lenoir,US,35.91401,-81.527586,28645,NC,McDonalds
2018-01-21T18:38:46Z,2018-06-22T18:24:51Z,11401 Highway 49,Gulfport,US,30.450438,-89.103813,39503,MS,McDonalds
2016-03-31T02:13:25Z,2018-06-22T18:24:46Z,1035 N Wendover Rd,Charlotte,US,35.19287,-80.795726,28211,NC,McDonalds
2018-01-23T05:45:40Z,2018-06-22T18:24:44Z,1010 N State St,Jackson,US,32.31227,-90.177959,39202,MS,McDonalds
2017-06-30T02:14:24Z,2018-06-22T18:24:41Z,1000 High Point St,Randleman,US,35.822904,-79.822825,27317,NC,McDonalds
2016-12-13T04:53:48Z,2018-06-22T18:24:33Z,1500 Western Blvd,Tarboro,US,35.905248,-77.562595,27886,NC,McDonalds
2016-05-06T06:48:15Z,2018-06-22T18:24:06Z,1315 Monmouth St,Independence,US,44.851161,-123.204255,97351,OR,McDonalds
2016-04-01T06:56:17Z,2018-06-22T18:24:05Z,2101 Cascade Ave,Hood River,US,45.709696,-121.532872,97031,OR,McDonalds
2016-04-01T06:56:20Z,2018-06-22T18:24:05Z,1049 E Marina Way,Hood River,US,45.711475,-121.499772,97031,OR,McDonalds
2015-11-02T17:32:52Z,2018-06-22T18:24:03Z,900 SW Highland Dr,Gresham,US,45.489761,-122.475544,97080,OR,McDonalds
2015-10-23T03:30:43Z,2018-06-22T18:24:03Z,4706 Portland Rd NE,Salem,US,44.990019,-122.987467,97305,OR,McDonalds
2015-10-23T03:20:59Z,2018-06-22T18:24:01Z,820 E Berkeley St,Gladstone,US,45.383197,-122.58201,97027,OR,McDonalds
2016-03-21T00:02:38Z,2018-06-22T18:24:01Z,204 NE Beacon Dr,Grants Pass,US,42.437441,-123.307733,97526,OR,McDonalds
2016-03-21T00:09:45Z,2018-06-22T18:23:59Z,2060 Highway 101,Florence,US,43.974386,-124.097926,97439,OR,McDonalds
2016-04-01T06:57:38Z,2018-06-22T18:23:57Z,3555 W 11th Ave,Eugene,US,44.048015,-123.145834,97402,OR,McDonalds
2016-04-01T06:57:37Z,2018-06-22T18:23:57Z,55 River Ave,Eugene,US,44.095702,-123.126687,97404,OR,McDonalds
2016-04-02T05:03:39Z,2018-06-22T18:23:54Z,300 NW 3rd St,Corvallis,US,44.566313,-123.259904,97330,OR,McDonalds
2017-08-05T15:09:58Z,2018-06-22T18:23:54Z,772 S Broadway,Coos Bay,US,43.361532,-124.213226,97420,OR,McDonalds
2016-04-02T04:15:26Z,2018-06-22T18:23:51Z,220 SW Century Dr,Bend,US,44.048984,-121.331653,97702,OR,McDonalds
2016-04-02T04:20:07Z,2018-06-22T18:23:50Z,20120 Pinebrook Blvd,Bend,US,44.020936,-121.324566,97702,OR,McDonalds
2015-10-23T02:26:38Z,2018-06-22T18:23:47Z,645 Marine Dr,Astoria,US,46.190432,-123.836124,97103,OR,McDonalds
2016-04-01T06:58:03Z,2018-06-22T18:23:46Z,3232 Pacific Blvd SE,Albany,US,44.642616,-123.064759,97321,OR,McDonalds
2017-07-19T17:41:42Z,2018-06-22T18:23:44Z,526 E 2nd St,Winner,US,43.376558,-99.850683,57580,SD,McDonalds
2017-07-19T17:41:24Z,2018-06-22T18:23:43Z,702 N Dakota St,Vermillion,US,42.788466,-96.929214,57069,SD,McDonalds
2016-10-18T03:24:57Z,2018-06-22T18:23:43Z,3209 S Louise Ave,Sioux Falls,US,43.516712,-96.771109,57106,SD,McDonalds
2017-09-01T22:19:13Z,2018-06-22T18:23:43Z,820 35th Cir SE,Watertown,US,44.89069,-97.060755,57201,SD,McDonalds
2016-04-04T04:19:01Z,2018-06-22T18:23:42Z,131 Ryan Rd,Spearfish,US,44.501289,-103.860878,57783,SD,McDonalds
2016-12-13T03:53:44Z,2018-06-22T18:23:39Z,3101 E 26th St,Sioux Falls,US,43.529298,-96.688086,57103,SD,McDonalds
2016-12-13T03:53:45Z,2018-06-22T18:23:38Z,4000 W 41st St,Sioux Falls,US,43.514831,-96.77452,57106,SD,McDonalds
2017-07-06T18:07:17Z,2018-06-22T18:23:38Z,2223 W Main St,Rapid City,US,44.081793,-103.256176,57702,SD,McDonalds
2017-07-20T15:18:02Z,2018-06-22T18:23:37Z,1200 N Lacrosse St,Rapid City,US,44.097617,-103.201638,57701,SD,McDonalds
2015-10-20T00:18:25Z,2018-06-22T18:23:37Z,3919 Cheyenne Blvd,Rapid City,US,44.09567,-103.150262,57703,SD,McDonalds
2017-07-19T17:41:16Z,2018-06-22T18:23:36Z,610 W Sioux Ave,Pierre,US,44.370576,-100.360388,57501,SD,McDonalds
2017-09-01T08:20:34Z,2018-06-22T18:23:35Z,200 S Main St,Chamberlain,US,43.809754,-99.331061,57325,SD,McDonalds
2016-06-20T17:24:37Z,2018-06-22T18:23:34Z,4817 Highway 29 S,Alexandria,US,45.942085,-95.312621,56308,MN,Taco Bell
2016-10-18T03:39:09Z,2018-06-22T18:23:34Z,1605 6th St,Brookings,US,44.311492,-96.778289,57006,SD,McDonalds
2017-06-27T05:55:40Z,2018-06-22T18:23:31Z,7295 University Ave NE,Minneapolis,US,45.100401,-93.261821,55432,MN,Taco Bell
2016-10-20T07:04:41Z,2018-06-22T18:23:17Z,975 W 78th St,Chanhassen,US,44.862427,-93.545212,55317,MN,Taco Bell
2016-03-10T18:52:05Z,2018-06-22T18:23:17Z,9230 Lyndale Ave S,Minneapolis,US,44.836406,-93.289271,55420,MN,Taco Bell
2017-07-24T20:51:26Z,2018-06-22T18:23:14Z,4141 Mormon Coulee Ct,La Crosse,US,43.773454,-91.217936,54601,WI,Taco Bell
2016-04-02T03:50:08Z,2018-06-22T18:23:12Z,291 County Road 10 Ne,Minneapolis,US,45.129052,-93.257356,55434,MN,Taco Bell
2016-03-22T19:16:01Z,2018-06-22T18:23:10Z,1940 Suburban Ave,Saint Paul,US,44.949379,-93.018372,55119,MN,Taco Bell
2015-10-30T20:25:51Z,2018-06-22T18:23:10Z,215 E Lake St,Minneapolis,US,44.947993,-93.273227,55408,MN,Taco Bell
2016-06-04T20:26:52Z,2018-06-22T18:23:09Z,1901 Highway 13 W,Burnsville,US,44.772818,-93.305195,55337,MN,Taco Bell
2017-06-19T15:43:34Z,2018-06-22T18:23:08Z,1101 Larpenteur Ave W,Saint Paul,US,44.99229,-93.146918,55113,MN,Taco Bell
2015-11-20T18:47:16Z,2018-06-22T18:23:05Z,14040 Highway 13 S,Savage,US,44.748779,-93.380588,55378,MN,Taco Bell
2015-10-24T00:19:50Z,2018-06-22T18:21:28Z,1282 S Boston Rd,Danville,US,36.582443,-79.351877,24540,VA,Burger King
2015-10-23T03:03:38Z,2018-06-22T18:20:37Z,290 E Compton Blvd,Compton,US,33.895706,-118.22063,90220,CA,Burger King
2016-06-08T16:18:39Z,2018-06-22T18:20:24Z,619 Broadway,Chula Vista,US,32.626972,-117.08742,91910,CA,McDonalds
2015-11-09T08:40:23Z,2018-06-22T18:20:20Z,6706 Clinton Hwy,Knoxville,US,36.006911,-84.018081,37912,TN,Burger King
2016-04-02T04:03:37Z,2018-06-22T18:20:16Z,8030 Greenback Ln,Citrus Heights,US,38.677958,-121.2652,95610,CA,Burger King
2016-11-02T17:17:05Z,2018-06-22T18:20:12Z,236 N Humboldt Ave,Willows,US,39.52263,-122.21168,95988,CA,McDonalds
2016-03-31T02:44:37Z,2018-06-22T18:19:59Z,2757 Castro Valley Blvd,Castro Valley,US,37.694563,-122.085455,94546,CA,Burger King
2016-03-31T02:37:38Z,2018-06-22T18:19:55Z,49 W Hamilton Ave,Campbell,US,37.294339,-121.950871,95008,CA,Burger King
2016-06-20T15:35:11Z,2018-06-22T18:19:40Z,7201 Fair Oaks Blvd,Carmichael,US,38.632,-121.3288,95608,CA,Burger King
2016-04-04T07:25:02Z,2018-06-22T18:19:23Z,815 Chappel Dr,Spanish Fork,US,40.123976,-111.642624,84660,UT,Burger King
2015-10-23T01:53:59Z,2018-06-22T18:19:16Z,1720 Park Ave,Park City,US,40.658326,-111.507084,84060,UT,Burger King
2015-10-23T02:59:10Z,2018-06-22T18:19:14Z,8304 El Camino Real,Atascadero,US,35.474274,-120.654576,93422,CA,Burger King
2015-06-19T21:02:13Z,2018-06-22T18:19:10Z,803 N Main St,Layton,US,41.072556,-111.978598,84041,UT,Burger King
2015-10-23T00:55:50Z,2018-06-22T18:19:08Z,687 W State St,Hurricane,US,37.176458,-113.300377,84737,UT,Burger King
2015-10-23T02:51:48Z,2018-06-22T18:19:05Z,828 Southampton Rd,Benicia,US,38.06753,-122.168337,94510,CA,Burger King
2016-04-01T06:53:05Z,2018-06-22T18:19:00Z,515 E Main St,Uvalde,US,29.21207,-99.778349,78801,TX,Burger King
2016-05-21T01:58:21Z,2018-06-22T18:18:59Z,1540 E Main St,Barstow,US,34.891772,-117.001755,92311,CA,Burger King
2016-03-28T05:33:18Z,2018-06-22T18:18:57Z,10134 Artesia Blvd,Bellflower,US,33.872425,-118.118195,90706,CA,Burger King
2015-10-28T16:25:53Z,2018-06-22T18:18:52Z,1213 N Travis St,Sherman,US,33.645878,-96.612181,75090,TX,Burger King
2014-10-25T15:02:46Z,2018-06-22T18:18:42Z,14130 Ramona Blvd,Baldwin Park,US,34.084904,-117.965034,91706,CA,Burger King
2016-03-29T04:57:59Z,2018-06-22T18:18:35Z,17601 Halsted St,Homewood,US,41.569335,-87.636192,60430,IL,Taco Bell
2015-10-23T03:24:10Z,2018-06-22T18:18:27Z,3605 E 18th St,Antioch,US,38.00562,-121.755602,94509,CA,Burger King
2017-07-01T00:54:54Z,2018-06-22T18:18:18Z,306 W Rollins Rd,Round Lake,US,42.379367,-88.090594,60073,IL,Taco Bell
2016-04-02T05:44:17Z,2018-06-22T18:18:16Z,2182 S Perryville Rd,Rockford,US,42.242169,-88.979761,61112,IL,Taco Bell
2015-10-23T00:55:17Z,2018-06-22T18:18:15Z,10710 N Main St,Richmond,US,42.481616,-88.306089,60071,IL,Taco Bell
2015-10-23T01:51:35Z,2018-06-22T18:18:14Z,5257 Trompeter Rd,Peru,US,41.369912,-89.127509,61354,IL,Taco Bell
2017-06-19T15:49:00Z,2018-06-22T18:18:14Z,3101 N Sterling Ave,Peoria,US,40.725904,-89.632557,61604,IL,Taco Bell
2016-03-27T05:29:01Z,2018-06-22T18:18:13Z,7601 W 111th St,Palos Hills,US,41.689687,-87.807139,60465,IL,Taco Bell
2017-07-21T15:44:23Z,2018-06-22T18:18:13Z,1920 Court St,Pekin,US,40.560185,-89.620775,61554,IL,Taco Bell
2015-10-23T00:22:02Z,2018-06-22T18:18:12Z,534 Crawford Rd,Belton,US,34.582264,-82.47881,29627,SC,McDonalds
2016-08-25T17:19:26Z,2018-06-22T18:18:11Z,2222 Green Bay Rd,North Chicago,US,42.318766,-87.86647,60064,IL,Taco Bell
2015-10-24T00:24:16Z,2018-06-22T18:18:11Z,1527 E College Ave,Normal,US,40.510327,-88.959485,61761,IL,Taco Bell
2016-03-25T03:02:35Z,2018-06-22T18:18:10Z,7535 N Harlem Ave,Niles,US,42.017637,-87.806548,60714,IL,Taco Bell
2017-07-21T15:44:26Z,2018-06-22T18:18:10Z,100 W Ashland St,Morton,US,40.625831,-89.464451,61550,IL,Taco Bell
2016-03-29T05:04:29Z,2018-06-22T18:18:07Z,1950 Douglas Rd,Montgomery,US,41.71974,-88.319428,60538,IL,Taco Bell
2016-06-20T17:18:22Z,2018-06-22T18:18:07Z,4650 16th St,Moline,US,41.466329,-90.507118,61265,IL,Taco Bell
2015-10-23T22:43:38Z,2018-06-22T18:18:01Z,7878 Pocomoke Dr,Jessup,US,39.167616,-76.783963,20794,MD,McDonalds
2016-03-21T00:08:16Z,2018-06-22T18:18:01Z,3340 Mall Loop Dr,Joliet,US,41.57939,-88.165058,60431,IL,Taco Bell
2016-03-29T04:53:40Z,2018-06-22T18:17:58Z,270 E Army Trail Rd,Glendale Heights,US,41.935996,-88.071188,60139,IL,Taco Bell
2016-04-02T05:24:08Z,2018-06-22T18:17:56Z,1882 S West Ave,Freeport,US,42.272672,-89.63141,61032,IL,Taco Bell
2015-10-24T00:23:58Z,2018-06-22T18:17:49Z,7053 Arundel Mills Cir,Hanover,US,39.153002,-76.723817,21076,MD,McDonalds
2017-06-19T15:29:16Z,2018-06-22T18:17:31Z,4396 Montgomery Rd,Ellicott City,US,39.250777,-76.813101,21043,MD,McDonalds
2015-11-06T09:52:31Z,2018-06-22T18:17:30Z,226 Belle Hill Rd,Elkton,US,39.635133,-75.805571,21921,MD,McDonalds
2015-10-23T02:34:16Z,2018-06-22T18:17:27Z,2222 Dundalk Ave,Dundalk,US,39.264906,-76.527427,21222,MD,McDonalds
2016-04-06T02:22:15Z,2018-06-22T18:17:25Z,10 Maryland Ave,Crisfield,US,37.991003,-75.844143,21817,MD,McDonalds
2015-11-02T15:28:59Z,2018-06-22T18:17:24Z,7244 Cradlerock Way,Columbia,US,39.185679,-76.843415,21045,MD,McDonalds
2016-03-28T05:53:35Z,2018-06-22T18:17:21Z,6095 Daybreak Cir,Clarksville,US,39.210178,-76.937833,21029,MD,McDonalds
2015-10-23T01:32:49Z,2018-06-22T18:17:20Z,875 Washington Ave,Chestertown,US,39.225371,-76.070907,21620,MD,McDonalds
2016-04-01T06:29:06Z,2018-06-22T18:17:18Z,6447 Baltimore National Pike,Catonsville,US,39.284946,-76.759683,21228,MD,McDonalds
2015-10-19T17:23:14Z,2018-06-22T18:17:06Z,801 Gravenstein Ave,Sebastopol,US,38.394035,-122.818689,95472,CA,McDonalds
2016-03-26T04:08:20Z,2018-06-22T18:16:55Z,5001 Mckinney Ranch Pkwy,McKinney,US,33.158926,-96.680845,75070,TX,McDonalds
2017-11-25T02:06:00Z,2018-06-22T18:16:53Z,6363 Hearne Ave,Shreveport,US,32.448789,-93.781072,71108,LA,Burger King
2017-07-24T21:48:24Z,2018-06-22T18:16:49Z,6020 Old Boyce Rd,Alexandria,US,31.345107,-92.517004,71303,LA,Burger King
2016-04-03T02:10:52Z,2018-06-22T18:16:44Z,439 John Fitch Hwy,Fitchburg,US,42.582414,-71.775218,1420,MA,Burger King
2015-11-25T18:16:56Z,2018-06-22T18:16:41Z,489 State St,Springfield,US,42.108163,-72.576647,1109,MA,Burger King
2016-11-06T05:20:38Z,2018-06-22T18:16:36Z,5938 Highway 167 N,Winnfield,US,31.936107,-92.653639,71483,LA,Burger King
2017-07-03T19:45:06Z,2018-06-22T18:16:29Z,1020 E Madison Ave,Bastrop,US,32.78127,-91.901043,71220,LA,Burger King
2016-03-30T04:25:56Z,2018-06-22T18:16:27Z,7004 Siegen Ln,Baton Rouge,US,30.385667,-91.064558,70809,LA,Burger King
2016-06-20T15:28:58Z,2018-06-22T18:16:27Z,6703 Pines Rd,Shreveport,US,32.448172,-93.865242,71129,LA,Burger King
2016-03-30T04:05:58Z,2018-06-22T18:16:21Z,2192 S Sherwood Forest Blvd,Baton Rouge,US,30.433078,-91.057839,70816,LA,Burger King
2015-10-23T00:42:01Z,2018-06-22T18:16:14Z,5131 Main St,Zachary,US,30.647977,-91.151824,70791,LA,Burger King
2017-06-19T15:59:26Z,2018-06-22T18:16:12Z,3701 Bragg Blvd,Fayetteville,US,35.07857,-78.940747,28303,NC,McDonalds
2015-11-06T10:29:12Z,2018-06-22T18:16:12Z,4383 La Highway 1 S,Port Allen,US,30.406769,-91.229842,70767,LA,Burger King
2017-06-19T15:56:37Z,2018-06-22T18:16:07Z,6728 Kalamazoo Ave SE,Grand Rapids,US,42.842144,-85.624731,49508,MI,Taco Bell
2016-04-01T06:53:23Z,2018-06-22T18:16:07Z,943 Creswell Ln,Opelousas,US,30.519384,-92.074994,70570,LA,Burger King
2015-10-19T15:29:37Z,2018-06-22T18:16:01Z,2919 S Lewis St,New Iberia,US,29.968869,-91.835925,70560,LA,Burger King
2015-11-13T18:37:46Z,2018-06-21T21:36:32Z,18234 Maugans Ave,Hagerstown,US,39.691607,-77.738818,21740,MD,Burger King
2016-03-30T03:57:30Z,2018-06-21T21:36:30Z,17532 Valley Mall Rd,Hagerstown,US,39.626191,-77.767691,21740,MD,Burger King
2015-11-25T18:19:15Z,2018-06-21T21:36:29Z,10516 Sharpsburg Pike,Hagerstown,US,39.600468,-77.729678,21740,MD,Burger King
2016-01-06T18:23:26Z,2018-06-21T21:36:24Z,2811 Chestnut Ridge Rd,Grantsville,US,39.690789,-79.103802,21536,MD,Burger King
2016-01-06T18:23:59Z,2018-06-21T21:36:23Z,1299 National Hwy,Cumberland,US,39.637928,-78.832937,21502,MD,Burger King
2016-04-05T02:18:03Z,2018-06-21T21:36:23Z,6 Hampton Inn Dr,Frostburg,US,39.642962,-78.909752,21532,MD,Burger King
2015-09-13T03:27:00Z,2018-06-21T21:36:21Z,8022 Liberty Rd,Windsor Mill,US,39.353322,-76.755754,21244,MD,Burger King
2016-03-23T04:36:28Z,2018-06-21T21:36:19Z,8304 Pulaski Hwy,Rosedale,US,39.32338,-76.502491,21237,MD,Burger King
2015-10-23T02:56:34Z,2018-06-21T21:36:16Z,5604 Baltimore National Pike,Catonsville,US,39.289591,-76.726646,21228,MD,Burger King
2015-10-23T01:58:30Z,2018-06-21T21:36:15Z,6807 Rolling Mill Rd,Baltimore,US,39.297176,-76.529346,21224,MD,Burger King
2015-10-23T03:24:52Z,2018-06-21T21:36:06Z,990 Pulaski Hwy,Havre de Grace,US,39.546763,-76.106205,21078,MD,Burger King
2016-04-03T11:53:46Z,2018-06-21T21:36:03Z,14 Mountain Rd,Glen Burnie,US,39.135989,-76.597223,21060,MD,Burger King
2017-07-03T19:51:40Z,2018-06-21T21:35:54Z,12265 Veirs Mill Rd,Silver Spring,US,39.05768,-77.084654,20906,MD,Burger King
2017-06-19T15:38:13Z,2018-06-21T21:35:51Z,6505 Annapolis Rd,Hyattsville,US,38.939492,-76.906024,20784,MD,Burger King
2016-03-23T04:36:41Z,2018-06-21T21:35:49Z,2208 University Blvd E,Hyattsville,US,38.984017,-76.975083,20783,MD,Burger King
2015-10-25T18:03:45Z,2018-06-21T21:35:01Z,1601 W Charleston Blvd,Las Vegas,US,36.158309,-115.162684,89102,NV,McDonalds
2017-06-19T15:34:47Z,2018-06-21T21:35:00Z,2095 Brierley Way,Sparks,US,39.527755,-119.701355,89434,NV,McDonalds
2015-09-02T21:07:59Z,2018-06-21T21:34:49Z,1408 W Craig Rd,North Las Vegas,US,36.239482,-115.160893,89032,NV,McDonalds
2016-06-20T20:08:10Z,2018-06-21T21:34:47Z,7851 W Charleston Blvd,Las Vegas,US,36.158558,-115.263132,89117,NV,McDonalds
2017-04-18T01:17:23Z,2018-06-21T21:34:47Z,5200 S Fort Apache Rd,Las Vegas,US,36.09383,-115.294615,89148,NV,McDonalds
2016-07-21T13:05:24Z,2018-06-21T21:34:45Z,301 Fremont St,Las Vegas,US,36.169828,-115.142841,89101,NV,McDonalds
2016-06-05T19:10:28Z,2018-06-21T21:34:45Z,1501 W Lake Mead Blvd,Las Vegas,US,36.195232,-115.161299,89106,NV,McDonalds
2017-07-20T14:56:46Z,2018-06-21T21:34:44Z,4300 Meadows Ln,Las Vegas,US,36.172774,-115.20044,89107,NV,McDonalds
2015-10-23T02:56:44Z,2018-06-21T21:34:44Z,4215 Las Vegas Blvd N,Las Vegas,US,36.236888,-115.061636,89115,NV,McDonalds
2016-05-04T01:48:51Z,2018-06-21T21:34:43Z,3626 S Rainbow Blvd,Las Vegas,US,36.123133,-115.242839,89103,NV,McDonalds
2016-03-24T09:56:05Z,2018-06-21T21:34:40Z,2513 E Owens Ave,North Las Vegas,US,36.188148,-115.115191,89030,NV,McDonalds
2017-03-26T18:05:20Z,2018-06-21T21:34:39Z,4945 W Flamingo Rd,Las Vegas,US,36.114851,-115.209048,89103,NV,McDonalds
2017-02-08T23:26:37Z,2018-06-21T21:34:39Z,6020 W Tropicana Ave,Las Vegas,US,36.100467,-115.224087,89103,NV,McDonalds
2016-06-08T16:05:35Z,2018-06-21T21:34:38Z,4321 W Flamingo Rd,Las Vegas,US,36.114523,-115.195934,89103,NV,McDonalds
2017-03-26T18:01:00Z,2018-06-21T21:34:33Z,3815 S Maryland Pkwy,Las Vegas,US,36.119881,-115.138031,89119,NV,McDonalds
2016-03-26T04:53:42Z,2018-06-21T21:34:32Z,4400 E Charleston Blvd,Las Vegas,US,36.159167,-115.079606,89104,NV,McDonalds
2016-03-26T04:53:39Z,2018-06-21T21:34:32Z,201 N Nellis Blvd,Las Vegas,US,36.164519,-115.06323,89110,NV,McDonalds
2015-11-07T18:59:00Z,2018-06-21T21:34:30Z,2886 S Nellis Blvd,Las Vegas,US,36.137324,-115.064924,89121,NV,McDonalds
2017-04-10T07:44:52Z,2018-06-21T21:34:28Z,5198 Boulder Hwy,Las Vegas,US,36.111142,-115.062752,89122,NV,McDonalds
2017-02-11T22:57:52Z,2018-06-21T21:34:27Z,4934 Boulder Hwy,Las Vegas,US,36.113844,-115.066665,89121,NV,McDonalds
2016-03-22T04:13:24Z,2018-06-21T21:34:24Z,540 Marks St,Henderson,US,36.061115,-115.033495,89014,NV,McDonalds
2016-03-27T05:28:24Z,2018-06-21T21:34:23Z,1237 Nevada Hwy,Boulder City,US,35.971334,-114.849553,89005,NV,McDonalds
2015-11-06T09:39:45Z,2018-06-21T21:34:22Z,535 E Idaho St,Kalispell,US,48.203448,-114.307145,59901,MT,Taco Bell
2015-10-23T02:28:40Z,2018-06-21T21:34:21Z,1601 3rd St NW,Great Falls,US,47.521028,-111.308274,59404,MT,Taco Bell
2018-01-18T17:23:51Z,2018-06-21T21:34:17Z,3051 Highway 80 E,Pearl,US,32.282241,-90.118333,39208,MS,Taco Bell
2017-07-23T03:34:52Z,2018-06-21T21:34:13Z,614 S State St,Clarksdale,US,34.189784,-90.577591,38614,MS,Taco Bell
2016-03-21T00:11:00Z,2018-06-21T21:34:12Z,1003 W University Ave,Urbana,US,40.116302,-88.220945,61801,IL,Taco Bell
2015-10-20T02:04:55Z,2018-06-21T21:34:10Z,1676 S 4th Ave,Yuma,US,32.697157,-114.624638,85364,AZ,Taco Bell
2016-04-02T05:49:11Z,2018-06-21T21:34:09Z,7915 N Oracle Rd,Tucson,US,32.350373,-110.97579,85704,AZ,Taco Bell
2016-06-20T15:22:42Z,2018-06-21T21:34:09Z,8270 N Cortaro Rd,Tucson,US,32.356885,-111.091432,85743,AZ,Taco Bell
2017-06-19T16:02:37Z,2018-06-21T21:34:08Z,495 E Wetmore Rd,Tucson,US,32.286587,-110.964259,85705,AZ,Taco Bell
2016-03-21T00:30:12Z,2018-06-21T21:34:08Z,4951 S Campbell Ave,Tucson,US,32.162055,-110.94266,85706,AZ,Taco Bell
2016-03-31T02:20:38Z,2018-06-21T21:34:07Z,1111 S Wilmot Rd,Tucson,US,32.207496,-110.857543,85711,AZ,Taco Bell
2016-04-04T06:03:47Z,2018-06-21T21:34:07Z,3455 E Grant Rd,Tucson,US,32.250912,-110.918865,85716,AZ,Taco Bell
2017-01-31T21:46:13Z,2018-06-21T21:34:05Z,1801 E Guadalupe Rd,Tempe,US,33.363763,-111.911152,85283,AZ,Taco Bell
2016-06-08T16:28:31Z,2018-06-21T21:34:04Z,13752 W Waddell Rd,Surprise,US,33.609206,-112.356741,85379,AZ,Taco Bell
2016-04-01T06:50:01Z,2018-06-21T21:34:03Z,9059 E Indian Bend Rd,Scottsdale,US,33.537573,-111.885038,85250,AZ,Taco Bell
2015-10-20T02:11:58Z,2018-06-21T21:34:01Z,14002 N Scottsdale Rd,Scottsdale,US,33.613253,-111.926347,85254,AZ,Taco Bell
2015-11-16T18:24:45Z,2018-06-21T21:33:58Z,4430 S 48th St,Phoenix,US,33.40627,-111.978863,85040,AZ,Taco Bell
2017-03-20T20:48:30Z,2018-06-21T21:33:58Z,4209 W Bell Rd,Phoenix,US,33.639046,-112.149911,85053,AZ,Taco Bell
2016-07-31T01:12:12Z,2018-06-21T21:33:56Z,2102 11th Ave,Haleyville,US,34.227995,-87.621764,35565,AL,Taco Bell
2015-10-23T22:53:11Z,2018-06-21T21:33:55Z,1017 Fort Dale Rd,Greenville,US,31.855389,-86.640842,36037,AL,Taco Bell
2016-06-20T17:28:54Z,2018-06-21T21:33:46Z,1101 Forestdale Blvd,Birmingham,US,33.557866,-86.889551,35214,AL,Taco Bell
2015-10-29T18:21:24Z,2018-06-21T21:33:46Z,1897 Velp Ave,Green Bay,US,44.555863,-88.057722,54303,WI,Taco Bell
2015-12-03T18:06:24Z,2018-06-21T21:33:45Z,1529 W Mason St,Green Bay,US,44.522663,-88.062164,54303,WI,Taco Bell
2016-07-07T20:49:06Z,2018-06-21T21:33:44Z,1501 W Main Ave,De Pere,US,44.462654,-88.117323,54115,WI,Taco Bell
2017-07-01T00:55:24Z,2018-06-21T21:33:44Z,892 E Johnson St,Fond du Lac,US,43.783309,-88.412355,54935,WI,Taco Bell
2016-03-21T00:08:20Z,2018-06-21T21:27:17Z,20905 Ecorse Rd,Taylor,US,42.256217,-83.241127,48180,MI,Burger King
2015-10-23T02:52:02Z,2018-06-21T21:27:15Z,12900 Allen Rd,Taylor,US,42.213722,-83.229223,48180,MI,Burger King
2017-07-20T21:27:53Z,2018-06-21T21:27:14Z,10939 Wayne Rd,Romulus,US,42.223662,-83.385421,48174,MI,Burger King
2016-03-30T04:24:06Z,2018-06-21T21:27:13Z,44475 Five Mile Rd,Plymouth,US,42.395612,-83.485614,48170,MI,Burger King
2015-11-07T12:30:56Z,2018-06-21T21:27:02Z,25300 Michigan Ave,Dearborn,US,42.297904,-83.284666,48124,MI,Burger King
2017-07-20T21:23:47Z,2018-06-21T21:26:58Z,151 S Zeeb Rd,Ann Arbor,US,42.284725,-83.838496,48103,MI,Burger King
2017-06-29T02:08:21Z,2018-06-21T21:26:48Z,24201 Harper Ave,Saint Clair Shores,US,42.472813,-82.905312,48080,MI,Burger King
2016-02-16T04:48:38Z,2018-06-21T21:26:35Z,530 Oxbow Rd,Palmyra,US,44.829194,-69.296653,4965,ME,Burger King
2016-11-06T05:19:17Z,2018-06-21T21:26:34Z,795 Main St,Presque Isle,US,46.700549,-68.010114,4769,ME,Burger King
2017-06-28T03:19:35Z,2018-06-21T21:26:29Z,205 High St,Ellsworth,US,44.538525,-68.415028,4605,ME,Burger King
2015-10-23T02:41:14Z,2018-06-21T21:26:21Z,1252 Main St,Sanford,US,43.419098,-70.755742,4073,ME,Burger King
2015-10-23T02:26:38Z,2018-06-21T21:24:26Z,3685 Pulaski Hwy,Cornersville,US,35.30936,-86.87959,37047,TN,McDonalds
2016-04-05T02:30:51Z,2018-06-21T21:24:26Z,1005 E Christi Dr,Dickson,US,36.02263,-87.33807,37055,TN,McDonalds
2016-03-29T05:10:53Z,2018-06-21T21:24:19Z,58 Bullsboro Dr,Newnan,US,33.38493,-84.78484,30263,GA,McDonalds
2016-03-29T05:10:52Z,2018-06-21T21:24:17Z,1721 Newnan Crossing Blvd E,Newnan,US,33.37642,-84.75432,30265,GA,McDonalds
2015-07-22T19:20:21Z,2018-06-21T21:24:15Z,2125 Mount Zion Pkwy,Morrow,US,33.56206,-84.320597,30260,GA,McDonalds
2016-04-05T03:02:36Z,2018-06-21T21:24:13Z,611 S Wayne St,Milledgeville,US,33.074009,-83.225008,31061,GA,McDonalds
2016-05-16T23:17:15Z,2018-06-21T21:24:13Z,2592 N Columbia St,Milledgeville,US,33.11724,-83.2647,31061,GA,McDonalds
2016-11-06T05:17:32Z,2018-06-21T21:24:12Z,1215 S Lewis St,Metter,US,32.37662,-82.06306,30439,GA,McDonalds
2016-03-29T05:06:01Z,2018-06-21T21:24:11Z,885 Industrial Blvd,McDonough,US,33.42853,-84.179288,30253,GA,McDonalds
2015-10-24T00:10:10Z,2018-06-21T21:24:10Z,4478 Columbia Rd,Augusta,US,33.507432,-82.142786,30907,GA,McDonalds
2016-03-24T10:05:01Z,2018-06-21T21:24:08Z,3011 Johnson Ferry Rd,Marietta,US,34.022903,-84.426488,30062,GA,McDonalds
2016-03-08T21:07:47Z,2018-06-21T21:24:08Z,3101 Roswell Rd,Marietta,US,33.980562,-84.463039,30062,GA,McDonalds
2016-07-11T00:12:03Z,2018-06-21T21:24:05Z,1785 Cobb Pkwy S,Marietta,US,33.871264,-84.467985,30060,GA,McDonalds
2015-10-19T23:13:40Z,2018-06-21T21:24:03Z,319 W Main St,Manchester,US,32.853488,-84.617255,31816,GA,McDonalds
2016-01-24T21:14:29Z,2018-06-21T21:24:02Z,770 Pine St,Macon,US,32.834019,-83.636248,31201,GA,McDonalds
2016-05-15T04:16:26Z,2018-06-21T21:24:01Z,3660 Riverside Dr,Macon,US,32.900297,-83.686901,31210,GA,McDonalds
2016-06-04T21:03:05Z,2018-06-21T21:24:00Z,5020 Harrison Rd,Macon,US,32.811978,-83.723079,31206,GA,McDonalds
2016-04-19T10:32:54Z,2018-06-21T21:23:58Z,5401 Fairington Rd,Lithonia,US,33.702364,-84.168463,30038,GA,McDonalds
2016-04-05T03:19:59Z,2018-06-21T21:23:51Z,13786 Jones St,Lavonia,US,34.443451,-83.114122,30553,GA,McDonalds
2015-11-30T23:33:33Z,2018-06-21T21:23:49Z,4415 Wade Green Rd NW,Kennesaw,US,34.060645,-84.592795,30144,GA,McDonalds
2015-09-13T03:57:30Z,2018-06-21T21:22:19Z,10220 Sunrise Blvd E,Puyallup,US,47.098225,-122.292808,98374,WA,Wendys
2017-06-19T15:59:48Z,2018-06-21T21:22:19Z,10619 Pacific Hwy SW,Lakewood,US,47.161203,-122.484604,98499,WA,Wendys
2015-02-14T22:09:49Z,2018-06-21T21:19:17Z,3402 S Belt Hwy,Saint Joseph,US,39.735438,-94.801106,64503,MO,Taco Bell
2017-06-25T05:33:57Z,2018-06-21T21:19:16Z,2203 Droste Rd,Saint Charles,US,38.787706,-90.512078,63301,MO,Taco Bell
2017-07-23T03:19:16Z,2018-06-21T21:19:15Z,1303 S Perryville Blvd,Perryville,US,37.711784,-89.890735,63775,MO,Taco Bell
2016-04-08T08:49:35Z,2018-06-21T21:19:14Z,1630 W Osage St,Pacific,US,38.484707,-90.760092,63069,MO,Taco Bell
2016-02-26T13:55:42Z,2018-06-21T21:19:14Z,10426 Page Ave,Saint Louis,US,38.690958,-90.389834,63132,MO,Taco Bell
2016-11-02T17:22:35Z,2018-06-21T21:19:12Z,829 E Us Highway 60,Monett,US,36.913555,-93.913564,65708,MO,Taco Bell
2016-05-05T00:56:58Z,2018-06-21T21:19:12Z,510 E Mount Vernon Blvd,Mount Vernon,US,37.094525,-93.814544,65712,MO,Taco Bell
2016-04-01T06:44:55Z,2018-06-21T21:19:11Z,2024 Mckelvey Rd,Maryland Heights,US,38.715528,-90.452975,63043,MO,Taco Bell
2017-07-18T20:20:31Z,2018-06-21T21:19:09Z,1217 S Baltimore St,Kirksville,US,40.185961,-92.571955,63501,MO,Taco Bell
2016-03-30T04:05:09Z,2018-06-21T21:19:08Z,430 NE Barry Rd,Kansas City,US,39.246764,-94.574317,64155,MO,Taco Bell
2016-04-01T06:48:46Z,2018-06-21T21:19:05Z,123 E Linwood Blvd,Kansas City,US,39.068408,-94.583579,64111,MO,Taco Bell
2017-07-06T22:58:20Z,2018-06-21T21:19:03Z,1905 Southwest Blvd,Jefferson City,US,38.554882,-92.19907,65109,MO,Taco Bell
2017-06-27T05:25:31Z,2018-06-21T21:19:02Z,7747 N Lindbergh Blvd,Hazelwood,US,38.786821,-90.351463,63042,MO,Taco Bell
2016-03-21T00:12:09Z,2018-06-21T21:19:00Z,611 Gravois Rd,Fenton,US,38.513119,-90.441099,63026,MO,Taco Bell
2015-07-22T19:51:45Z,2018-06-21T21:19:00Z,1491 Dunn Rd,Florissant,US,38.772846,-90.305189,63033,MO,Taco Bell
2017-06-27T05:25:39Z,2018-06-21T21:18:59Z,83 Hilltop Village Center Dr,Eureka,US,38.504591,-90.643431,63025,MO,Taco Bell
2017-07-23T03:19:10Z,2018-06-21T21:18:59Z,412 N State St,Park Hills,US,37.874667,-90.512367,63601,MO,Taco Bell
2016-03-31T02:43:58Z,2018-06-21T21:18:59Z,560 W Karsch Blvd,Farmington,US,37.7911,-90.432989,63640,MO,Taco Bell
2016-04-03T00:10:55Z,2018-06-21T21:18:58Z,1403 W Business Us Highway 60,Dexter,US,36.803572,-89.980024,63841,MO,Taco Bell
2017-06-19T16:05:31Z,2018-06-21T21:18:58Z,220 Business Loop 70 E,Columbia,US,38.964735,-92.334883,65203,MO,Taco Bell
2017-06-19T15:40:24Z,2018-06-21T21:18:58Z,411 S Providence Rd,Columbia,US,38.947002,-92.334374,65203,MO,Taco Bell
2017-06-19T15:57:03Z,2018-06-21T21:18:56Z,508 E Nifong Blvd,Columbia,US,38.909489,-92.33195,65201,MO,Taco Bell
2017-06-19T15:37:00Z,2018-06-21T21:18:56Z,3301 Clark Ln,Columbia,US,38.963799,-92.28857,65202,MO,Taco Bell
2015-07-19T21:23:03Z,2018-06-21T17:22:28Z,301 E County Line Rd,Littleton,US,39.56643,-104.984059,80122,CO,Burger King
2017-03-22T17:25:59Z,2018-06-21T17:22:18Z,2640 W Bethany Home Rd,Phoenix,US,33.524418,-112.116097,85017,AZ,Burger King
2015-10-23T23:18:56Z,2018-06-21T17:21:03Z,3625 S Dort Hwy,Flint,US,42.990574,-83.65351,48507,MI,Burger King
2016-04-06T13:01:19Z,2018-06-21T17:21:00Z,G5461 N Saginaw St,Flint,US,43.088438,-83.694148,48505,MI,Burger King
2016-03-21T00:14:17Z,2018-06-21T17:20:57Z,227 W Main St,Durant,US,33.991121,-96.377859,74701,OK,McDonalds
2016-04-05T02:53:19Z,2018-06-21T17:20:53Z,10382 Highland Rd,Hartland,US,42.633676,-83.746238,48353,MI,Burger King
2016-03-26T04:16:16Z,2018-06-21T17:20:53Z,6310 Highway 78,Sachse,US,32.978659,-96.591288,75048,TX,Subway
2015-06-10T13:19:35Z,2018-06-21T17:20:53Z,6401 New York Ave,Arlington,US,32.643919,-97.075422,76018,TX,Subway
2016-04-02T05:08:37Z,2018-06-21T17:20:50Z,4922 Dixie Hwy,Waterford,US,42.691102,-83.38723,48329,MI,Burger King
2015-09-21T08:37:09Z,2018-06-21T17:20:49Z,420 S Dewey Ave,Wagoner,US,35.956703,-95.395267,74467,OK,McDonalds
2017-07-18T20:19:33Z,2018-06-21T17:20:49Z,601 E Broadway St,Cuero,US,29.091554,-97.284129,77954,TX,Subway
2016-03-30T04:16:42Z,2018-06-21T17:20:48Z,12101 S Memorial Dr,Bixby,US,35.987891,-95.885956,74008,OK,McDonalds
2016-03-31T02:33:30Z,2018-06-21T17:20:48Z,5807 SW 45th Ave,Amarillo,US,35.161595,-101.90514,79109,TX,Subway
2016-04-21T03:32:53Z,2018-06-21T17:20:47Z,5528 Bosque Blvd,Waco,US,31.53293,-97.19316,76710,TX,Subway
2015-10-28T16:26:48Z,2018-06-21T17:20:46Z,5153 E Interstate 20 Service Rd N,Weatherford,US,32.735363,-97.769207,76087,TX,Subway
2017-07-24T21:27:25Z,2018-06-21T17:20:43Z,3108 N Broadway St,Poteau,US,35.072841,-94.628967,74953,OK,McDonalds
2016-03-23T04:20:46Z,2018-06-21T17:20:41Z,110 W 141st St,Glenpool,US,35.958672,-96.009608,74033,OK,McDonalds
2017-09-05T17:05:46Z,2018-06-21T17:20:36Z,1758 E Carl Albert Pkwy,McAlester,US,34.927398,-95.743864,74501,OK,McDonalds
2016-03-30T04:17:25Z,2018-06-21T17:20:31Z,1300 E 2nd St,Edmond,US,35.652771,-97.463067,73034,OK,McDonalds
2016-04-08T09:17:33Z,2018-06-21T17:20:30Z,1527 S Division St,Guthrie,US,35.863246,-97.425374,73044,OK,McDonalds
2015-10-23T02:47:01Z,2018-06-21T17:20:27Z,8000 E Reno Ave,Oklahoma City,US,35.463722,-97.388153,73110,OK,McDonalds
2016-03-24T16:48:28Z,2018-06-21T17:20:25Z,925 SW 134th St,Oklahoma City,US,35.334207,-97.530398,73170,OK,McDonalds
2015-11-25T18:20:11Z,2018-06-21T17:20:24Z,630 NW 12th St,Oklahoma City,US,35.348769,-97.497641,73160,OK,McDonalds
2014-02-03T04:16:36Z,2018-06-21T17:20:24Z,7373 Clairemont Mesa Blvd,San Diego,US,32.832368,-117.159573,92111,CA,Subway
2016-04-04T05:22:36Z,2018-06-21T17:20:18Z,1501 N Hervey St,Hope,US,33.678128,-93.601565,71801,AR,Taco Bell
2016-04-02T05:21:09Z,2018-06-21T17:20:17Z,915 N Greenwood Ave,Fort Smith,US,35.385245,-94.403232,72901,AR,Taco Bell
2016-04-05T01:51:22Z,2018-06-21T17:20:13Z,2715 Prince St,Conway,US,35.092248,-92.468102,72034,AR,Taco Bell
2015-11-13T18:13:17Z,2018-06-21T17:20:11Z,1403 W Locust St,Cabot,US,34.980033,-92.030321,72023,AR,Taco Bell
2015-11-25T18:16:33Z,2018-06-21T17:20:11Z,102 S Walton Blvd,Bentonville,US,36.372432,-94.221497,72712,AR,Taco Bell
2016-03-31T01:07:38Z,2018-06-21T17:20:01Z,2525 W Court St,Janesville,US,42.679177,-89.050859,53548,WI,Taco Bell
2016-03-30T04:25:51Z,2018-06-21T17:19:31Z,7400 Ritchie Hwy,Glen Burnie,US,39.167289,-76.622321,21061,MD,Taco Bell
2016-07-06T21:19:27Z,2018-06-21T17:19:12Z,902 Chicago Ave,Plattsmouth,US,41.002434,-95.894986,68048,NE,Subway
2016-03-31T02:34:45Z,2018-06-21T17:19:09Z,1018 N Jackson St,Tullahoma,US,35.373156,-86.221718,37388,TN,McDonalds
2016-12-13T03:48:53Z,2018-06-21T17:19:09Z,610 Chestnut St,Arapahoe,US,40.306316,-99.896556,68922,NE,Subway
2016-08-03T22:13:53Z,2018-06-21T17:19:08Z,3034 Rhea County Hwy,Dayton,US,35.459354,-85.046898,37321,TN,McDonalds
2015-10-23T00:59:03Z,2018-06-21T17:19:05Z,3335 W Wood River Rd,Grand Island,US,40.830827,-98.380752,68803,NE,Subway
2016-05-08T21:55:43Z,2018-06-21T17:19:02Z,1305 Taft Hwy,Signal Mountain,US,35.140875,-85.327275,37377,TN,McDonalds
2015-11-09T08:39:55Z,2018-06-21T17:18:58Z,5440 Highway 153,Hixson,US,35.140829,-85.248355,37343,TN,McDonalds
2016-05-16T23:16:52Z,2018-06-21T17:18:58Z,178 Highway 64,Ocoee,US,35.127103,-84.720553,37361,TN,McDonalds
2016-03-23T04:22:01Z,2018-06-21T17:18:56Z,332 Rankin Ave S,Dunlap,US,35.378379,-85.384848,37327,TN,McDonalds
2015-11-09T08:40:13Z,2018-06-21T17:18:54Z,8601 Hixson Pike,Hixson,US,35.201114,-85.158938,37343,TN,McDonalds
2015-10-19T23:43:46Z,2018-06-21T17:18:53Z,5431 Main St,Spring Hill,US,35.74481,-86.93916,37174,TN,McDonalds
2016-03-21T00:10:21Z,2018-06-21T17:18:52Z,524 Murfreesboro Pike,Nashville,US,36.142389,-86.743079,37210,TN,McDonalds
2016-05-03T22:15:06Z,2018-06-21T17:18:51Z,4500 N Lee Hwy,Cleveland,US,35.201159,-84.844775,37312,TN,McDonalds
2015-09-17T01:07:11Z,2018-06-21T17:18:50Z,331 Harding Pl,Nashville,US,36.086234,-86.694938,37211,TN,McDonalds
2016-04-05T02:18:03Z,2018-06-21T17:18:45Z,1201 Broadway,Nashville,US,36.156083,-86.787663,37203,TN,McDonalds
2016-03-31T02:38:55Z,2018-06-21T17:18:45Z,2700 W End Ave,Nashville,US,36.145691,-86.811808,37203,TN,McDonalds
2015-11-20T18:39:08Z,2018-06-21T17:18:43Z,856 Highway 76,White House,US,36.468971,-86.678718,37188,TN,McDonalds
2016-04-01T07:02:38Z,2018-06-21T17:18:41Z,1880 N Main St,Shelbyville,US,35.513214,-86.452045,37160,TN,McDonalds
2016-04-02T22:58:04Z,2018-06-21T17:18:41Z,505 S Congress Blvd,Smithville,US,35.95728,-85.81157,37166,TN,McDonalds
2016-03-30T04:17:00Z,2018-06-21T17:18:39Z,1252 Robinson Rd,Old Hickory,US,36.25791,-86.65756,37138,TN,McDonalds
2017-07-20T14:01:53Z,2018-06-21T17:18:38Z,106 SE Broad St,Murfreesboro,US,35.841338,-86.391189,37130,TN,McDonalds
2016-06-08T16:04:08Z,2018-06-21T17:18:34Z,1900 Mcloughlin Blvd,Oregon City,US,45.368348,-122.59941,97045,OR,Subway
2016-03-29T05:11:51Z,2018-06-21T17:18:33Z,11279 Lebanon Rd,Mount Juliet,US,36.23145,-86.51437,37122,TN,McDonalds
2016-04-03T02:39:40Z,2018-06-21T17:18:33Z,800 John Long Rd,Oakland,US,43.544354,-123.284679,97462,OR,Subway
2015-10-16T18:21:15Z,2018-06-21T17:18:32Z,1525 Main St,Windsor,US,40.478104,-104.927004,80550,CO,Subway
2016-03-29T05:21:59Z,2018-06-21T17:18:32Z,160 NW 25th St,Newport,US,44.654551,-124.055182,97365,OR,Subway
2015-10-22T19:21:55Z,2018-06-21T17:18:32Z,2261 Newmark St,North Bend,US,43.391444,-124.243445,97459,OR,Subway
2016-05-05T22:37:13Z,2018-06-21T17:18:31Z,270 N Molalla Ave,Molalla,US,45.149569,-122.576653,97038,OR,Subway
2016-04-02T05:22:04Z,2018-06-21T17:18:30Z,305 New Shackle Island Rd,Hendersonville,US,36.321601,-86.623146,37075,TN,McDonalds
2016-04-02T05:43:37Z,2018-06-21T17:18:29Z,1420 W Main St,Lebanon,US,36.2162,-86.33171,37087,TN,McDonalds
2017-06-26T10:21:13Z,2018-06-21T17:18:28Z,134 E Tomichi Ave,Gunnison,US,38.544396,-106.926458,81230,CO,Subway
2016-04-03T12:09:31Z,2018-06-21T17:18:27Z,101 S State St,Lake Oswego,US,45.414873,-122.663907,97034,OR,Subway
2016-04-05T02:16:42Z,2018-06-21T17:18:26Z,402 W Main St,Gallatin,US,36.385619,-86.45516,37066,TN,McDonalds
2016-07-06T20:12:11Z,2018-06-21T17:18:25Z,121 S Canyon Blvd,John Day,US,44.415886,-118.952675,97845,OR,Subway
2015-09-03T22:26:56Z,2018-06-21T17:18:24Z,906 Rivergate Pkwy,Goodlettsville,US,36.30015,-86.69999,37072,TN,McDonalds
2017-07-20T00:46:56Z,2018-06-21T17:18:24Z,103 Mcmurry Blvd,Hartsville,US,36.39974,-86.16198,37074,TN,McDonalds
2017-06-24T02:23:45Z,2018-06-21T17:16:44Z,4810 Golden Pkwy,Buford,US,34.143102,-83.952528,30518,GA,McDonalds
2017-06-24T02:23:43Z,2018-06-21T17:16:18Z,4358 Buford Dr,Buford,US,34.094968,-84.01159,30518,GA,McDonalds
2015-10-23T03:44:27Z,2018-06-21T17:15:58Z,13838 N Scottsdale Rd,Scottsdale,US,33.612761,-111.926225,85254,AZ,Burger King
2017-07-06T23:04:06Z,2018-06-21T17:15:56Z,1300 S Thompson St,Springdale,US,36.171556,-94.139055,72764,AR,Burger King
2016-06-04T20:47:12Z,2018-06-21T17:15:55Z,1292 Boston Post Rd,Milford,US,41.238404,-73.036471,6460,CT,Burger King
2016-06-08T16:31:03Z,2018-06-21T17:15:54Z,12580 W 64th Ave,Arvada,US,39.812335,-105.140035,80004,CO,Burger King
2016-03-05T20:12:51Z,2018-06-21T17:15:54Z,12601 W Bell Rd,Surprise,US,33.638127,-112.332204,85374,AZ,Burger King
2015-10-19T23:54:54Z,2018-06-21T17:15:39Z,1100 W Main St,Cabot,US,34.976966,-92.027031,72023,AR,Burger King
2015-11-06T10:37:08Z,2018-06-21T17:15:38Z,10615 N Oracle Rd,Tucson,US,32.398868,-110.956718,85737,AZ,Burger King
2015-11-20T20:01:46Z,2018-06-21T17:15:36Z,10590 W Colfax Ave,Denver,US,39.73969,-105.116192,80215,CO,Burger King
2016-03-31T02:30:46Z,2018-06-21T17:14:40Z,12121 Blue Ridge Ext,Grandview,US,38.903952,-94.529981,64030,MO,Subway
2016-05-06T06:25:47Z,2018-06-21T17:14:27Z,1433 Fremont Blvd,Seaside,US,36.606641,-121.846898,93955,CA,McDonalds
2017-07-06T23:56:06Z,2018-06-21T17:11:15Z,820 Veterans Ave,Vandalia,US,38.977146,-89.100449,62471,IL,McDonalds
2016-04-02T05:28:54Z,2018-06-21T17:11:12Z,601 N Cunningham Ave,Urbana,US,40.118229,-88.204407,61801,IL,McDonalds
2017-07-20T14:01:35Z,2018-06-21T17:11:11Z,401 W Spresser St,Taylorville,US,39.552717,-89.298838,62568,IL,McDonalds
2017-01-09T20:02:04Z,2018-06-21T17:11:10Z,11 W Jackson St,Sullivan,US,39.600814,-88.607598,61951,IL,McDonalds
2015-10-19T15:17:42Z,2018-06-21T17:10:45Z,4678 S Orange Blossom Trl,Orlando,US,28.494787,-81.396849,32839,FL,Subway
2016-06-20T15:24:55Z,2018-06-21T17:10:35Z,1951 Aloma Ave,Winter Park,US,28.60055,-81.326367,32792,FL,Subway
2015-10-23T22:52:46Z,2018-06-21T17:09:48Z,5668 Broad St,Sumter,US,33.951732,-80.496244,29154,SC,Subway
2017-06-19T15:51:07Z,2018-06-21T17:09:47Z,550 Highway 17 N,North Myrtle Beach,US,33.829647,-78.671306,29582,SC,Subway
2015-10-24T00:18:18Z,2018-06-21T17:09:46Z,501 Highway 418,Simpsonville,US,34.66241,-82.26043,29680,SC,Subway
2016-03-03T18:40:43Z,2018-06-21T17:09:44Z,4360 Augusta Rd,Lexington,US,33.973488,-81.154761,29073,SC,Subway
2015-10-24T00:17:47Z,2018-06-21T17:09:41Z,3443 Highway 153,Piedmont,US,34.712582,-82.452762,29673,SC,Subway
2016-12-13T03:44:38Z,2018-06-21T17:09:41Z,337 Main St N,Allendale,US,33.009494,-81.307026,29810,SC,Subway
2016-03-28T18:21:12Z,2018-06-21T17:09:36Z,2700 Broad River Rd,Columbia,US,34.045531,-81.099838,29210,SC,Subway
2017-07-07T13:29:26Z,2018-06-21T17:09:36Z,2571 Whiskey Rd,Aiken,US,33.507848,-81.711162,29803,SC,Subway
2014-02-03T04:03:13Z,2018-06-21T17:07:22Z,6311 6th Ave,Tacoma,US,47.25587,-122.521545,98406,WA,McDonalds
2015-09-16T02:18:48Z,2018-06-21T17:07:18Z,7217 Pacific Ave,Tacoma,US,47.190854,-122.434022,98408,WA,McDonalds
2017-06-19T15:38:09Z,2018-06-21T17:07:17Z,15210 Tukwila International Blvd,Seattle,US,47.466884,-122.288019,98188,WA,McDonalds
2015-09-10T22:24:32Z,2018-06-21T17:07:16Z,4814 Center St,Tacoma,US,47.233949,-122.502619,98409,WA,McDonalds
2016-04-02T05:49:26Z,2018-06-21T17:07:13Z,9305 N Newport Hwy,Spokane,US,47.741708,-117.409799,99218,WA,McDonalds
2015-09-21T09:19:28Z,2018-06-21T17:07:10Z,739 W 1st Ave,Toppenish,US,46.375104,-120.320984,98948,WA,McDonalds
2017-06-19T15:36:09Z,2018-06-21T17:07:10Z,10516 E Sprague Ave,Spokane,US,47.657086,-117.263862,99206,WA,McDonalds
2016-03-24T10:22:40Z,2018-06-21T17:07:08Z,5146 25th Ave NE,Seattle,US,47.666558,-122.300578,98105,WA,McDonalds
2015-09-16T02:30:58Z,2018-06-21T17:07:08Z,802 Tacoma Ave S,Tacoma,US,47.255291,-122.445458,98402,WA,McDonalds
2017-07-26T16:52:01Z,2018-06-21T17:07:08Z,3530 N Sullivan Rd,Spokane,US,47.687771,-117.196799,99216,WA,McDonalds
2015-09-13T02:45:30Z,2018-06-21T17:07:06Z,15 S Havana St,Spokane,US,47.657092,-117.346854,99202,WA,McDonalds
2015-09-13T02:44:26Z,2018-06-21T17:07:05Z,404 S Maple St,Spokane,US,47.652236,-117.436426,99201,WA,McDonalds
2015-09-21T09:13:59Z,2018-06-21T17:07:04Z,3416 N Market St,Spokane,US,47.68826,-117.364934,99207,WA,McDonalds
2015-09-21T09:22:56Z,2018-06-21T17:07:03Z,499 S 1st St,Selah,US,46.647166,-120.529917,98942,WA,McDonalds
2015-09-13T02:25:05Z,2018-06-21T17:07:00Z,10444 Silverdale Way NW,Silverdale,US,47.657975,-122.686085,98383,WA,McDonalds
2015-09-13T01:15:16Z,2018-06-21T17:07:00Z,1818 N Monroe St,Spokane,US,47.674263,-117.426492,99205,WA,McDonalds
2015-09-19T20:22:05Z,2018-06-21T17:06:59Z,4436 N Division St,Spokane,US,47.698676,-117.410507,99207,WA,McDonalds
2017-06-19T15:27:55Z,2018-06-21T17:06:57Z,20227 Ballinger Way NE,Seattle,US,47.775524,-122.310817,98155,WA,McDonalds
2015-10-23T04:19:29Z,2018-06-21T17:06:54Z,1950 6th Ave,Seattle,US,47.614069,-122.33783,98101,WA,McDonalds
2015-11-02T16:07:55Z,2018-06-21T17:06:53Z,4411 NE Sunset Blvd,Renton,US,47.504275,-122.160506,98059,WA,McDonalds
2016-03-23T03:12:30Z,2018-06-21T17:06:53Z,222 5th Ave N,Seattle,US,47.620703,-122.347609,98109,WA,McDonalds
2015-10-23T00:43:21Z,2018-06-21T17:06:51Z,160 New Highway 68,Sweetwater,US,35.59911,-84.519332,37874,TN,Burger King
2015-08-22T03:03:18Z,2018-06-21T17:06:50Z,6305 Martin Luther King Jr Way S,Seattle,US,47.545979,-122.285695,98118,WA,McDonalds
2016-03-24T10:21:54Z,2018-06-21T17:06:48Z,6546 California Ave SW,Seattle,US,47.544436,-122.387232,98136,WA,McDonalds
2015-08-23T20:52:28Z,2018-06-21T17:06:47Z,401 S Grady Way,Renton,US,47.471592,-122.212609,98057,WA,McDonalds
2015-09-13T04:15:45Z,2018-06-21T17:06:46Z,304 2nd St NE,Puyallup,US,47.19369,-122.292485,98372,WA,McDonalds
2015-09-21T08:43:01Z,2018-06-21T17:06:45Z,1620 S Grand Ave,Pullman,US,46.712642,-117.184209,99163,WA,McDonalds
2015-09-13T04:44:27Z,2018-06-21T17:06:42Z,23545 NE Novelty Hill Rd,Redmond,US,47.70036,-122.025026,98053,WA,McDonalds
2015-09-13T04:15:41Z,2018-06-21T17:06:41Z,804 S Hill Park Dr,Puyallup,US,47.160468,-122.303388,98373,WA,McDonalds
2015-07-06T20:06:38Z,2018-06-21T17:06:40Z,310 31st Ave SE,Puyallup,US,47.161054,-122.289436,98374,WA,McDonalds
2015-09-21T09:23:01Z,2018-06-21T17:06:36Z,103 Merlot Dr,Prosser,US,46.220342,-119.788817,99350,WA,McDonalds
2015-10-23T00:49:20Z,2018-06-21T17:05:33Z,526 S Main St,Middletown,US,41.542955,-72.65224,6457,CT,Subway
2015-10-23T22:44:15Z,2018-06-21T17:05:32Z,559 Norwich New London Tpke,Uncasville,US,41.440978,-72.105085,6382,CT,Subway
2017-09-01T08:20:26Z,2018-06-21T11:52:03Z,6250 Central Ave,Capitol Heights,US,38.887058,-76.899635,20743,MD,Taco Bell
2016-06-08T16:13:04Z,2018-06-21T11:52:03Z,6265 Lake Worth Rd,Lake Worth,US,26.619666,-80.142903,33463,FL,Taco Bell
2017-10-27T06:42:15Z,2018-06-21T11:51:56Z,62B Westbank Expressway,Gretna,US,29.914113,-90.048019,70053,LA,Taco Bell
2016-04-01T07:02:34Z,2018-06-21T11:51:55Z,631 E Chestnut St,Junction City,US,39.021126,-96.819631,66441,KS,Taco Bell
2017-07-24T22:01:50Z,2018-06-21T11:51:24Z,832 Factory Outlet Dr,West Frankfort,US,37.898253,-88.950002,62896,IL,Taco Bell
2015-10-28T16:10:19Z,2018-06-21T11:51:24Z,835 Texas Ave,Bridge City,US,30.023985,-93.843028,77611,TX,Taco Bell
2015-11-06T09:52:11Z,2018-06-21T11:51:16Z,8475 Cordon Way,Nottingham,US,39.377515,-76.458366,21236,MD,Taco Bell
2015-10-23T02:54:27Z,2018-06-21T11:51:15Z,8433 Sierra College Blvd,Granite Bay,US,38.745554,-121.225728,95746,CA,Taco Bell
2017-06-27T10:02:22Z,2018-06-21T11:51:14Z,85 Key Rd,Keene,US,42.924113,-72.294112,3431,NH,Taco Bell
2015-11-01T18:48:34Z,2018-06-21T11:51:07Z,850 North Ave,Grand Junction,US,39.077662,-108.55843,81501,CO,Taco Bell
2015-10-23T02:37:23Z,2018-06-21T11:51:07Z,850 Harbor Blvd,West Sacramento,US,38.577614,-121.549103,95691,CA,Taco Bell
2017-06-19T15:44:10Z,2018-06-21T11:51:06Z,851 N Skinker Blvd,Saint Louis,US,38.658967,-90.299028,63130,MO,Taco Bell
2015-11-08T18:20:42Z,2018-06-21T11:50:59Z,855 NC Highway 24 87,Cameron,US,35.262308,-79.047749,28326,NC,Taco Bell
2017-09-18T14:56:34Z,2018-06-21T11:50:58Z,8585 South Ave,Youngstown,US,40.988422,-80.633249,44514,OH,Taco Bell
2015-10-23T22:31:37Z,2018-06-21T11:50:50Z,8602 Dixie Hwy,Louisville,US,38.126861,-85.851299,40258,KY,Taco Bell
2017-06-19T15:25:05Z,2018-06-21T11:48:21Z,6331 Lake Worth Blvd,Fort Worth,US,32.809844,-97.425247,76135,TX,Taco Bell
2015-10-20T00:12:30Z,2018-06-21T11:48:14Z,712 S Commercial St,Harrisburg,US,37.727887,-88.536305,62946,IL,Taco Bell
2015-11-25T18:19:08Z,2018-06-21T11:48:05Z,633 Liberty St,Springfield,US,42.120632,-72.583872,1104,MA,Taco Bell
2014-10-27T05:00:03Z,2018-06-21T11:48:05Z,6310 S Dixie Hwy,Miami,US,25.69886,-80.295648,33143,FL,Taco Bell
2017-07-20T19:05:01Z,2018-06-21T11:48:05Z,632 Overland Ave,Burley,US,42.563372,-113.792354,83318,ID,Taco Bell
2016-11-18T15:53:03Z,2018-06-21T11:48:04Z,6325 E Main St,Reynoldsburg,US,39.954489,-82.826502,43068,OH,Taco Bell
2015-11-06T18:02:20Z,2018-06-21T11:48:03Z,6327 E 82nd St,Indianapolis,US,39.904852,-86.058835,46250,IN,Taco Bell
2017-07-24T21:10:12Z,2018-06-21T11:48:03Z,7212 Siegen Lane,Baton Rouge,US,30.3836,-91.0659,70809,LA,Taco Bell
2015-11-02T16:41:36Z,2018-06-21T11:47:57Z,6365 Phelan Blvd,Beaumont,US,30.080429,-94.163022,77706,TX,Taco Bell
2015-10-19T15:41:42Z,2018-06-21T11:47:56Z,6403 W Interstate Ct,Whitsett,US,36.062327,-79.606211,27377,NC,Taco Bell
2015-10-23T01:59:03Z,2018-06-21T11:47:55Z,64 Flowing Springs Rd,Charles Town,US,39.295758,-77.84342,25414,WV,Taco Bell
2017-08-02T01:03:06Z,2018-06-21T11:47:55Z,640 10th Street East,Palmetto,US,27.521645,-82.557224,34221,FL,Taco Bell
2016-03-24T10:03:20Z,2018-06-21T11:47:48Z,6461 Boulder Hwy,Las Vegas,US,36.084409,-115.031472,89122,NV,Taco Bell
2016-11-02T17:02:57Z,2018-06-21T11:47:47Z,650 E Chicago Rd,Coldwater,US,41.936172,-84.976189,49036,MI,Taco Bell
2016-04-02T05:46:25Z,2018-06-21T11:47:47Z,6440 Antelope Rd,Citrus Heights,US,38.707036,-121.313446,95610,CA,Taco Bell
2016-06-12T00:03:02Z,2018-06-21T11:47:40Z,651 Atlanta Rd,Cumming,US,34.187933,-84.142351,30040,GA,Taco Bell
2016-03-20T23:58:35Z,2018-06-21T11:47:40Z,6504 Chapman Hwy,Knoxville,US,35.921571,-83.866099,37920,TN,Taco Bell
2018-01-18T05:53:17Z,2018-06-21T11:47:31Z,713 Big A Rd,Toccoa,US,34.571294,-83.307403,30577,GA,Taco Bell
2016-10-26T21:18:37Z,2018-06-21T11:47:23Z,715 W Market St,Bolivar,US,35.256037,-88.996902,38008,TN,Taco Bell
2017-09-06T15:08:49Z,2018-06-21T11:47:23Z,7141 South 76th Street,Franklin,US,42.914237,-88.009744,53132,WI,Taco Bell
2017-07-06T18:57:05Z,2018-06-21T11:47:22Z,716 E Yakima Ave,Yakima,US,46.60432,-120.495873,98901,WA,Taco Bell
2015-10-23T22:26:59Z,2018-06-21T11:47:21Z,721 E Cumberland St,Dunn,US,35.303308,-78.603089,28334,NC,Taco Bell
2016-10-18T21:12:05Z,2018-06-21T11:47:14Z,725 NE Weidler St,Portland,US,45.534583,-122.657951,97232,OR,Taco Bell
2015-10-23T03:10:17Z,2018-06-21T11:47:07Z,728 E Prien Lake Rd,Lake Charles,US,30.198266,-93.211309,70601,LA,Taco Bell
2015-10-23T03:55:02Z,2018-06-21T11:47:06Z,7232 Broadway,Lemon Grove,US,32.742935,-117.042061,91945,CA,Taco Bell
2015-10-23T02:41:14Z,2018-06-21T11:47:05Z,731 W Taylor St,Griffin,US,33.247358,-84.273987,30223,GA,Taco Bell
2017-04-08T21:17:12Z,2018-06-21T11:47:05Z,728 E Main St,Grand Prairie,US,32.746398,-96.994926,75050,TX,Taco Bell
2017-07-24T21:28:28Z,2018-06-21T11:46:58Z,737 Overthrust,Evanston,US,41.257727,-110.985617,82930,WY,Taco Bell
2017-09-12T18:51:57Z,2018-06-21T11:46:57Z,7337 State Ave,Kansas City,US,39.116251,-94.749461,66112,KS,Taco Bell
2016-04-03T00:06:02Z,2018-06-21T11:44:04Z,83 Perkins Rd,Clarion,US,41.189678,-79.395163,16214,PA,Taco Bell
2015-09-13T01:42:10Z,2018-06-21T11:43:56Z,830 Ocean Beach Hwy,Longview,US,46.146362,-122.926549,98632,WA,Taco Bell
2016-03-24T10:19:06Z,2018-06-21T11:43:55Z,8300 NE Vancouver Plaza Dr,Vancouver,US,45.653412,-122.587996,98662,WA,Taco Bell
2015-10-24T00:19:22Z,2018-06-21T11:33:57Z,800 N Pine St,Spartanburg,US,34.967951,-81.933045,29303,SC,Taco Bell
2017-07-19T22:39:56Z,2018-06-21T11:33:19Z,798 N Main Street,Marion,US,36.839552,-81.507778,24354,VA,Taco Bell
2017-06-29T02:17:57Z,2018-06-21T11:33:09Z,7784 W Irlo Bronson Mem Pkwy,Kissimmee,US,28.340036,-81.597628,34747,FL,Taco Bell
2015-11-01T22:32:38Z,2018-06-21T11:33:08Z,7791 Sudley Rd,Manassas,US,38.788199,-77.513481,20109,VA,Taco Bell
2016-06-08T16:09:03Z,2018-06-21T11:33:01Z,7856 Foothill Blvd,Sunland,US,34.259305,-118.304633,91040,CA,Taco Bell
2015-10-23T02:54:10Z,2018-06-21T11:33:00Z,7867 Adairsville Hwy,Adairsville,US,34.376962,-84.912665,30103,GA,Taco Bell
2017-06-27T06:35:52Z,2018-06-21T11:33:00Z,7858 Wolf River Blvd,Germantown,US,35.113345,-89.800791,38138,TN,Taco Bell
2015-10-24T00:18:04Z,2018-06-21T11:33:00Z,791 N Wendy Dr,Newbury Park,US,34.189096,-118.941206,91320,CA,Taco Bell
2015-11-02T17:04:47Z,2018-06-21T11:32:58Z,78932 Highway 111,La Quinta,US,33.710357,-116.289028,92253,CA,Taco Bell
2016-07-06T21:01:33Z,2018-06-21T11:32:51Z,8 SE Lee Blvd,Lawton,US,34.594696,-98.385726,73501,OK,Taco Bell
2017-07-03T19:41:25Z,2018-06-21T11:32:41Z,802 South Main Street,Leitchfield,US,37.46436,-86.292327,42754,KY,Taco Bell
2016-04-08T08:48:32Z,2018-06-21T11:32:41Z,804 W 27th St,Scottsbluff,US,41.873427,-103.674066,69361,NE,Taco Bell
2015-11-02T15:18:15Z,2018-06-21T11:32:12Z,7545 Fallbrook Ave,West Hills,US,34.207937,-118.623816,91307,CA,Taco Bell
2015-10-25T18:03:00Z,2018-06-21T11:31:35Z,7414 Kingston Pike,Knoxville,US,35.929104,-84.033147,37919,TN,Taco Bell
2017-07-19T22:14:07Z,2018-06-21T11:31:34Z,775 West 200 North,Cedar City,US,37.680542,-113.07336,84720,UT,Taco Bell
2017-07-18T03:04:16Z,2018-06-21T11:31:33Z,745 Carlsbad Village Drive,Carlsbad,US,33.160686,-117.346057,92008,CA,Taco Bell
2016-03-29T05:18:00Z,2018-06-21T11:31:32Z,7480 Edinger Ave,Huntington Beach,US,33.729885,-117.998453,92647,CA,Taco Bell
2016-07-07T19:31:51Z,2018-06-21T11:31:19Z,7541 Perkins Rd,Baton Rouge,US,30.395903,-91.110117,70808,LA,Taco Bell
2016-03-08T21:16:33Z,2018-06-21T11:31:18Z,756 W Pipeline Rd,Hurst,US,32.823978,-97.185513,76053,TX,Taco Bell
2017-06-19T15:30:25Z,2018-06-21T11:31:06Z,7625 W Commercial Blvd,Fort Lauderdale,US,26.1942,-80.253279,33351,FL,Taco Bell
2017-06-27T06:22:18Z,2018-06-21T11:31:05Z,770 Walnut Street,Las Cruces,US,32.310574,-106.754458,88001,NM,Taco Bell
2016-04-02T05:46:27Z,2018-06-21T11:31:02Z,7730 Sunrise Blvd,Citrus Heights,US,38.706616,-121.271304,95610,CA,Taco Bell
2017-07-18T03:03:43Z,2018-06-20T07:40:47Z,14600 Valley Blvd,La Puente,US,34.034233,-117.974457,91746,CA,Burger King
2015-10-21T17:42:46Z,2018-06-20T07:40:47Z,18611 Dexter Ave,Lake Elsinore,US,33.693207,-117.3367,92532,CA,Burger King
2015-10-23T22:21:18Z,2018-06-20T07:40:46Z,600 Canal St,King City,US,36.202495,-121.129794,93930,CA,Burger King
2015-10-23T03:57:25Z,2018-06-20T07:40:44Z,7079 Sunset Blvd,Los Angeles,US,34.098217,-118.343842,90028,CA,Burger King
2015-10-23T02:37:26Z,2018-06-20T07:40:44Z,1180 Palm Ave,Imperial Beach,US,32.584401,-117.108462,91932,CA,Burger King
2016-02-16T03:00:07Z,2018-06-20T07:40:43Z,4150 Highland Ave,Highland,US,34.136352,-117.196598,92346,CA,Burger King
2016-06-08T16:27:58Z,2018-06-20T07:40:40Z,523 N Central Ave,Glendale,US,34.153534,-118.258232,91203,CA,Burger King
2017-07-18T03:03:43Z,2018-06-20T07:40:40Z,3900 San Fernando Rd,Glendale,US,34.127256,-118.258034,91204,CA,Burger King
2015-11-02T16:05:19Z,2018-06-20T07:40:40Z,1200 E Colorado St,Glendale,US,34.142403,-118.239105,91205,CA,Burger King
2016-03-27T05:39:28Z,2018-06-20T07:40:40Z,13992 Brookhurst St,Garden Grove,US,33.759965,-117.954612,92843,CA,Burger King
2015-10-23T23:35:22Z,2018-06-20T07:40:39Z,526 Fairway Dr,Galt,US,38.250443,-121.29188,95632,CA,Burger King
2015-04-16T22:23:44Z,2018-06-20T07:40:38Z,2751 W Orangethorpe Ave,Fullerton,US,33.859432,-117.975983,92833,CA,Burger King
2016-03-27T05:39:51Z,2018-06-20T07:40:37Z,4610 E Kings Canyon Rd,Fresno,US,36.735702,-119.744933,93702,CA,Burger King
2015-10-23T02:43:18Z,2018-06-20T07:40:37Z,4087 W Clinton Ave,Fresno,US,36.771681,-119.864043,93722,CA,Burger King
2015-10-21T17:56:49Z,2018-06-20T07:40:36Z,3996 Washington Blvd,Fremont,US,37.532711,-121.958591,94538,CA,Burger King
2015-10-23T01:53:20Z,2018-06-20T07:40:36Z,39156 Paseo Padre Pkwy,Fremont,US,37.552478,-121.978771,94538,CA,Burger King
2015-10-23T22:46:55Z,2018-06-20T07:40:36Z,925 S Fortuna Blvd,Fortuna,US,40.580032,-124.146682,95540,CA,Burger King
2015-10-23T01:54:34Z,2018-06-20T07:37:27Z,305 W Trinity Ln,Nashville,US,36.207151,-86.779696,37207,TN,Subway
2016-03-29T04:57:59Z,2018-06-20T07:37:27Z,306 N Military St,Loretto,US,35.083278,-87.430996,38469,TN,Subway
2017-07-06T23:22:51Z,2018-06-20T07:37:26Z,2953 S 3rd St,Memphis,US,35.068198,-90.059332,38109,TN,Subway
2016-02-16T04:42:51Z,2018-06-20T07:37:25Z,2512b Wilma Rudolph Blvd,Clarksville,US,36.577719,-87.300778,37040,TN,Subway
2016-09-09T15:43:25Z,2018-06-20T07:37:25Z,2500 W Stone Dr,Kingsport,US,36.557202,-82.60267,37660,TN,Subway
2015-10-23T22:34:42Z,2018-06-20T07:37:24Z,2253 Olan Mills Dr,Chattanooga,US,35.05265,-85.183563,37421,TN,Subway
2016-11-02T17:10:30Z,2018-06-20T07:37:23Z,20483 Alberta St,Oneida,US,36.528029,-84.493526,37841,TN,Subway
2016-03-31T02:47:58Z,2018-06-20T07:36:20Z,1032 N Woodland Blvd,DeLand,US,29.045905,-81.304684,32720,FL,Burger King
2016-04-01T07:08:21Z,2018-06-20T03:35:07Z,4055 Mowry Ave,Fremont,US,37.548317,-121.989071,94538,CA,Subway
2015-09-21T09:29:17Z,2018-06-20T03:34:49Z,1407 E 72nd St,Tacoma,US,47.19175,-122.409493,98404,WA,Subway
2017-07-06T02:18:56Z,2018-06-20T03:34:46Z,1213 Erie Blvd W,Rome,US,43.225649,-75.487435,13440,NY,Subway
2015-09-13T01:37:11Z,2018-06-20T03:34:45Z,8421 5th Ave,Brooklyn,US,40.622718,-74.025413,11209,NY,Subway
2015-10-22T19:20:42Z,2018-06-20T03:34:45Z,6165 Strickland Ave,Brooklyn,US,40.612944,-73.912249,11234,NY,Subway
2015-10-19T23:11:29Z,2018-06-20T03:34:44Z,4280 Katonah Ave,Bronx,US,40.897993,-73.86726,10470,NY,Subway
2016-03-31T01:17:05Z,2018-06-20T03:34:42Z,1066 Madison Ave,Albany,US,42.665166,-73.79057,12208,NY,Subway
2015-10-22T19:16:45Z,2018-06-20T03:34:41Z,12765 Broadway St,Alden,US,42.894841,-78.511352,14004,NY,Subway
2016-06-20T15:44:33Z,2018-06-20T03:31:22Z,4593 N Valdosta Rd,Valdosta,US,30.893779,-83.319907,31602,GA,Subway
2016-10-13T13:21:19Z,2018-06-20T03:31:21Z,1302 W Screven St,Quitman,US,30.785286,-83.572137,31643,GA,Subway
2016-03-31T01:53:40Z,2018-06-20T03:30:32Z,4227 NW 23rd St,Oklahoma City,US,35.493517,-97.596452,73107,OK,Subway
2016-10-18T03:45:41Z,2018-06-20T03:30:31Z,2812 W Fir St,Perry,US,36.289447,-97.324031,73077,OK,Subway
2016-05-16T22:54:14Z,2018-06-20T03:30:31Z,301 S Louis Tittle Ave,Mangum,US,34.871189,-99.502773,73554,OK,Subway
2016-04-05T04:02:14Z,2018-06-20T03:30:30Z,2240 N Main St,Miami,US,36.900693,-94.877461,74354,OK,Subway
2015-06-19T20:07:58Z,2018-06-20T03:30:29Z,2100 Riverwalk Dr,Oklahoma City,US,35.319871,-97.493339,73160,OK,Subway
2015-11-02T15:28:53Z,2018-06-19T09:43:57Z,187 Fox Hills Mall,Culver City,US,33.984452,-118.394607,90230,CA,Subway
2017-06-20T14:49:41Z,2018-06-19T09:43:57Z,809 Cuesta Dr,Mountain View,US,37.37333,-122.087798,94040,CA,Subway
2016-02-26T13:38:54Z,2018-06-19T09:43:57Z,1300 E Covell Blvd,Davis,US,38.56098,-121.734688,95616,CA,Subway
2016-05-03T08:50:54Z,2018-06-19T09:43:56Z,301 E Coast Hwy,Newport Beach,US,33.615869,-117.900471,92660,CA,Subway
2016-04-04T06:28:45Z,2018-06-19T09:41:45Z,2265 University Ave,Green Bay,US,44.512901,-87.965565,54302,WI,Subway
2015-11-06T09:50:35Z,2018-06-19T09:41:43Z,1741 E Geneva St,Delavan,US,42.627711,-88.62279,53115,WI,Subway
2015-10-19T23:19:06Z,2018-06-19T09:41:43Z,1005 W Clairemont Ave,Eau Claire,US,44.792969,-91.513081,54701,WI,Subway
2016-03-27T14:37:42Z,2018-06-19T09:41:43Z,4304 Jeffers Rd,Eau Claire,US,44.841086,-91.524425,54703,WI,Subway
2016-04-02T05:32:11Z,2018-06-19T09:41:41Z,W62n202 Washington Ave,Cedarburg,US,43.282614,-87.987201,53012,WI,Subway
2016-10-26T21:50:50Z,2018-06-19T09:41:41Z,817 Dallas St,Chetek,US,45.3218,-91.659426,54728,WI,Subway
2017-06-30T02:04:42Z,2018-06-19T09:38:11Z,101 Clayton Forest Dr,Kernersville,US,36.088202,-80.064009,27284,NC,Subway
2016-03-28T15:01:08Z,2018-06-19T09:38:09Z,3772 Brevard Rd,Horse Shoe,US,35.343143,-82.55013,28742,NC,Subway
2015-10-23T00:33:09Z,2018-06-19T09:38:06Z,3284 Union Rd,Gastonia,US,35.208685,-81.164949,28056,NC,Subway
2016-10-26T21:40:26Z,2018-06-19T02:14:07Z,1229 E College Dr,Marshall,US,44.450394,-95.771693,56258,MN,Burger King
2016-04-04T04:10:09Z,2018-06-19T02:14:06Z,805 N Grand Canyon Blvd,Williams,US,35.257,-112.191842,86046,AZ,McDonalds
2016-03-27T14:41:28Z,2018-06-19T02:14:04Z,10861 University Ave NE,Minneapolis,US,45.166263,-93.266177,55434,MN,Burger King
2017-07-19T21:55:03Z,2018-06-19T02:14:03Z,108 9th Avenue Cir S,Princeton,US,45.569641,-93.58621,55371,MN,Burger King
2016-05-25T04:39:32Z,2018-06-19T02:14:03Z,100 W 98th St,Minneapolis,US,44.826803,-93.280057,55420,MN,Burger King
2015-11-20T18:41:18Z,2018-06-19T02:14:02Z,100 Grand Ave E,South Saint Paul,US,44.892982,-93.033424,55075,MN,Burger King
2015-10-23T01:59:31Z,2018-06-19T02:14:02Z,100 21st St N,Moorhead,US,46.876058,-96.747416,56560,MN,Burger King
2015-10-19T17:32:53Z,2018-06-19T02:14:00Z,370 E Wickenburg Way,Wickenburg,US,33.971666,-112.725207,85390,AZ,McDonalds
2016-06-14T02:41:55Z,2018-06-19T02:14:00Z,9490 E Golf Links Rd,Tucson,US,32.191204,-110.7904,85730,AZ,McDonalds
2016-02-03T02:11:56Z,2018-06-19T02:13:58Z,13770 W Bell Rd,Surprise,US,33.638752,-112.355201,85374,AZ,McDonalds
2015-11-02T16:14:29Z,2018-06-19T02:13:57Z,3315 N Swan Rd,Tucson,US,32.267251,-110.893249,85712,AZ,McDonalds
2016-04-04T06:03:10Z,2018-06-19T02:13:57Z,3856 E Speedway Blvd,Tucson,US,32.235881,-110.910004,85716,AZ,McDonalds
2016-04-23T14:21:30Z,2018-06-19T02:13:57Z,3800 W Linda Vista Blvd,Tucson,US,32.381356,-111.047645,85742,AZ,McDonalds
2016-04-02T04:14:33Z,2018-06-19T02:13:57Z,2250 W Ironwood Hill Dr,Tucson,US,32.251125,-111.015037,85745,AZ,McDonalds
2016-04-02T04:13:00Z,2018-06-19T02:13:56Z,1711 E Speedway Blvd,Tucson,US,32.23654,-110.946007,85719,AZ,McDonalds
2017-07-18T03:02:46Z,2018-06-19T02:13:55Z,5144 S Rural Rd,Tempe,US,33.378656,-111.928668,85282,AZ,McDonalds
2017-02-06T19:59:29Z,2018-06-19T02:13:55Z,9955 S Priest Dr,Tempe,US,33.327487,-111.96308,85284,AZ,McDonalds
2015-09-02T20:40:49Z,2018-06-19T02:13:54Z,1325 W Broadway Rd,Tempe,US,33.406786,-111.958707,85282,AZ,McDonalds
2016-04-02T18:13:36Z,2018-06-19T02:13:54Z,180 W Main St,Springerville,US,34.135345,-109.288102,85938,AZ,McDonalds
2016-04-01T06:50:05Z,2018-06-19T02:13:53Z,9251 E Shea Blvd,Scottsdale,US,33.582458,-111.881603,85260,AZ,McDonalds
2015-11-02T17:03:22Z,2018-06-19T02:13:53Z,10040 W Bell Rd,Sun City,US,33.638154,-112.277091,85351,AZ,McDonalds
2015-10-23T02:45:41Z,2018-06-19T02:13:53Z,1802 E Fry Blvd,Sierra Vista,US,31.554576,-110.279391,85635,AZ,McDonalds
2016-04-03T12:13:22Z,2018-06-19T02:13:53Z,5401 S White Mountain Rd,Show Low,US,34.198953,-110.017716,85901,AZ,McDonalds
2016-01-27T13:36:19Z,2018-06-19T02:13:52Z,9140 E Indian Bend Rd,Scottsdale,US,33.538552,-111.883811,85250,AZ,McDonalds
